ID,Nome,Attributo,Categoria,Generi,Provenienza,Latitude,Longitude
1610p,Rik Valente,2,Performer,"Canzone italiana, Jazz, Rock and Roll","Acquanegra, Cremona",45.1685642,9.8908399
554p,Fernando Previtali,9,Performer,Musica euro-colta,"Adria, Italy",45.0555487,12.0560381
1209p,Michelangelo Abbado,1,Performer,Musica euro-colta,"Alba, Italy",44.7009153,8.0356911
1079p,Luigi Ferrari Trecate,1,Performer,Musica euro-colta,"Alessandria, Italy",44.9072727,8.6116796
1217p,Milly,91,Performer,"Canzone internazionale, Musica di scena, Musica popolare","Alessandria, Italy",44.9072727,8.6116796
1464p,Piero Guarino,1,Performer,Musica euro-colta,"Alexandria, Egypt",31.2000924,29.9187387
1267p,Nicola Filacuridi,5,Performer,Opera,"Alexandria, Egypt",31.2000924,29.9187387
1898p,Alexandre Lagoya,1,Performer,Musica euro-colta,"Alexandria, Egypt",31.2000924,29.9187387
079p,Amedeo Baldovino,3,Performer,Musica euro-colta,"Alexandria, Egypt",31.2000924,29.9187387
194p,Bob Azzam,50,Performer,"Canzone italiana, Canzone internazionale, Commedia musicale, Jazz","Alexandria, Egypt",31.2000924,29.9187387
367p,Cristina Jorio,1,Performer,Canzone italiana,"Alfonsine, Italy",44.5059036,12.0430671
1215p,Miles Davis,1,Performer,Jazz,"Alton, Illinois, Stati Uniti",38.8906038,-90.1842764
449p,Elaine Shaffer,2,Performer,Musica euro-colta,"Altoona, Pennsylvania, United States",40.5186809,-78.3947359
1799p,Trio Los Paraguajos,16,Performer,"Canzone italiana, Musica popolare","Altos, Paraguay",-25.2631384,-57.2536314
1156p,Mario Pezzotta,3,Performer,"Canzone italiana, Jazz","Alzano Lombardo, Italy",45.7530752,9.7088947
177p,Bernard Haitink,1,Performer,Musica euro-colta,Amsterdam,52.3675734,4.9041389
163p,Ave Ninchi,74,Performer,Commedia musicale,"Ancona, Italy",43.6158299,13.518915
592p,Franco Corelli,25,Performer,Opera,"Ancona, Italy",43.6158299,13.518915
1185p,Massimo Pradella,3,Performer,Musica euro-colta,"Ancona, Italy",43.6158299,13.518915
364p,Cosimo Di Ceglie,39,Performer,"Canzone italiana, Canzone internazionale, Jazz, Commedia musicale","Ancona, Italy",43.6158299,13.518915
725p,Gina Cigna,1,Performer,Canzone italiana,"Angers, Francia",47.4711616,-0.5518257
897p,Jacques Loussier,7,Performer,"Canzone internazionale, Canzone francese","Angers, Francia",47.4711616,-0.5518257
083p,André Cluytens,10,Performer,Opera,Antwerp,51.2213404,4.4051485
1738p,solisti della Société Bach d'Anvers,1,Performer,Musica euro-colta,Anversa,51.2213404,4.4051485
1206p,Michel Block,1,Performer,Musica euro-colta,"Anversa, Belgio",51.2213404,4.4051485
885p,Irmgard Seefried,1,Performer,Musica euro-colta,"Apfeltrach, Germania",48.017982,10.4955733
264p,Carlo Meliciani,5,Performer,Opera,Arezzo,43.4632839,11.8796336
253p,Carlo Cava,5,Performer,Opera,"Ascoli Piceno, Italy",42.8475303,13.5668302
763p,Giulio Fioravanti,4,Performer,Opera,"Ascoli Piceno, Italy",42.8475303,13.5668302
701p,Gianni Basso,13,Performer,"Canzone italiana, Jazz","Asti, Italy",44.9007512,8.2064257
175p,Benny Joy,1,Performer,Rock and Roll,Atlanta,33.7489954,-84.3879824
1685p,Sammy Walker,1,Performer,Jazz,"Atlanta, Georgia",33.7489954,-84.3879824
662p,Gene Quill,2,Performer,Jazz,"Atlantic City, New Jersey, Stati Uniti",39.3642834,-74.4229266
282p,Cathy Berberian,6,Performer,Opera,"Attleboro, Massachusetts, United States",41.9445441,-71.2856082
663p,Gene Ramey,2,Performer,Jazz,"Austin, Texas, Stati Uniti",30.267153,-97.7430608
956p,Josè Rodriguez Farrè,3,Performer,Musica euro-colta,"Avellaneda, Buenos Aires, Argentina",-34.6610756,-58.3669739
025p,Adriana Martino,16,Performer,"Canzone napoletana, Opera","Aversa, Italy",40.9731743,14.2076688
464p,Elio Mauro,15,Performer,"Canzone italiana, Canzone internazionale","Avezzano, Italy",42.0281396,13.4255637
530p,Eugen Jochum,1,Performer,Musica euro-colta,"Babenhausen, Germania",49.9593613,8.9588974
832p,Herbert Albert,9,Performer,Musica euro-colta,"Bad Lausick, Germania",51.1449012,12.6450531
514p,Erik Werba,1,Performer,Musica euro-colta,"Baden bei Wien, Austria",48.00214,16.23091
265p,Carlo Montini,39,Performer,Musica di scena,Bagnolo,44.7617224,7.314887
1293p,Noemi Souza,1,Performer,Musica euro-colta,"Bahía Blanca, Argentina",-38.7183177,-62.2663478
1742p,Stanley Weiner,1,Performer,Musica euro-colta,Baltimore,39.2903848,-76.6121893
962p,Judith Ellwig,5,Performer,Opera,"Banská Bystrica, Slovacchia",48.736277,19.1461917
654p,Gaspar Cassadò,3,Performer,Musica euro-colta,Barcelona,32.8211286,-96.7845418
734p,Gino Latilla,1,Performer,Commedia musicale,Bari,41.1171432,16.8718715
924p,Jo Fedeli,1,Performer,"Canzone italiana, Jazz, Rock and Roll",Bari,41.1171432,16.8718715
1491p,Pippo Volpe,1,Performer,Commedia musicale,Bari,41.1171432,16.8718715
1845p,Vittorio Giuliani,13,Performer,Commedia musicale,Bari,41.1171432,16.8718715
262p,Carlo Maria Giulini,5,Performer,Musica euro-colta,"Barletta, Italy",41.3196635,16.2838207
771p,Giuseppe Fanciulli,1,Performer,"Canzone italiana, Canzone internazionale","Barletta, Italy",41.3196635,16.2838207
666p,George Gruntz,2,Performer,Jazz,"Basilea, Svizzera",47.5595986,7.5885761
1782p,Tito Gobbi,6,Performer,Opera,Bassano del Grappa,45.7657286,11.7272747
061p,Alexander Pavlovic,1,Performer,Musica euro-colta,Belgrade,44.8125449,20.4612299
351p,Coro della Radio di Belgrado,1,Performer,"Musica euro-colta, Musica popolare",Belgrade,44.8125449,20.4612299
354p,Coro dell'Opera Nazionale di Belgrado,2,Performer,Musica euro-colta,Belgrade,44.8125449,20.4612299
904p,Jane Russell,3,Performer,"Canzone italiana, Canzone internazionale, Rock and roll","Bemidji, Minnesota, Stati Uniti",47.471573,-94.8826861
1127p,Maria Teresa Vianello,27,Performer,Commedia musicale,"Bengasi, Libia",32.1194242,20.0867909
058p,Alessandro Esposito,4,Performer,Musica euro-colta,Bergamo,45.6982642,9.6772698
688p,Gianandrea Gavazzeni,75,Performer,Musica euro-colta,Bergamo,45.6982642,9.6772698
1074p,Luigi Benedetti,5,Performer,Musica euro-colta,Bergamo,45.6982642,9.6772698
1762p,Teodoro Rovetta,9,Performer,Musica euro-colta,Bergamo,45.6982642,9.6772698
148p,Arthur Rosenberg,2,Performer,Opera,Berlin,52.5200066,13.404954
301p,Christoph von Dohnanyl,2,Performer,Musica euro-colta,"Berlin, Germany",52.5200066,13.404954
339p,Complesso da camera di Berlino,1,Performer,Musica euro-colta,"Berlin, Germany",52.5200066,13.404954
391p,Dietrich Fischer Diskau,2,Performer,Musica euro-colta,"Berlin, Germany",52.5200066,13.404954
392p,Dimitri Nabokov,3,Performer,Opera,"Berlin, Germany",52.5200066,13.404954
558p,Filarmonica di Berlino,4,Performer,Musica euro-colta,"Berlin, Germany",52.5200066,13.404954
812p,Hans Schmitt,1,Performer,Musica euro-colta,"Berlino, Germania",52.5200066,13.404954
838p,Hermann Prey,1,Performer,Musica euro-colta,"Berlino, Germania",52.5200066,13.404954
839p,Hermann Scherchen,20,Performer,Musica euro-colta,"Berlino, Germania",52.5200066,13.404954
1072p,Ludwig Hoffmann,1,Performer,Musica euro-colta,"Berlino, Germania",52.5200066,13.404954
1307p,Opera di Stato di Berlino,4,Performer,Opera,"Berlino, Germania",52.5200066,13.404954
1323p,Orchestra da camera di Berlino,1,Performer,Musica euro-colta,"Berlino, Germania",52.5200066,13.404954
1622p,Robert Alexander Bohnke,1,Performer,Musica euro-colta,"Berlino, Germania",52.5200066,13.404954
387p,Derrik Olsen,1,Performer,Musica euro-colta,Bern,46.9479739,7.4474468
1566p,Reinhold Schmidt,2,Performer,Musica euro-colta,"Berndorf, Niederösterreich, Austria",47.9445615,16.1043039
059p,Alessandro Santini,1,Performer,Musica euro-colta,Bibbiena,43.694125,11.8158559
015p,Achille Berruti,5,Performer,Musica euro-colta,Biella,45.5628842,8.0583397
476p,Elvina Ramella,2,Performer,"Canzone italiana, Musica euro-colta, Opera",Biella,45.5628842,8.0583397
928p,Joaquin Achucarro,2,Performer,Musica euro-colta,"Bilbao, Spain",43.2630126,-2.9349852
974p,Karl Engel,1,Performer,Musica euro-colta,"Birsfelden, Svizzera",47.5516505,7.6272499
492p,Enrica Cavallo,3,Performer,Musica euro-colta,"Bloomington, Indiana, Stati Uniti",39.165325,-86.5263857
1811p,Umberto Bindi,24,Performer,"Canzone italiana, Canzone internazionale, Jazz, Musica popolare, Commedia musicale, Rock and Roll","Bogliasco, Italy",44.3792927,9.0647653
125p,Antonio Cassinelli,11,Performer,Opera,Bologna,44.494887,11.3426162
206p,Bruna Rizzoli,7,Performer,"Musica euro-colta, Opera",Bologna,44.494887,11.3426162
266p,Carlo Ninchi,89,Performer,"Commedia musicale, Musica di scena",Bologna,44.494887,11.3426162
488p,Emma Contestabile,1,Performer,Musica euro-colta,Bologna,44.494887,11.3426162
493p,Enrico Campajola,1,Performer,Musica euro-colta,Bologna,44.494887,11.3426162
550p,Ferdinando Tagliavini,1,Performer,Musica euro-colta,Bologna,44.494887,11.3426162
584p,Francesco Molinari Pradelli,5,Performer,Musica euro-colta,Bologna,44.494887,11.3426162
709p,Gianni Raimondi,42,Performer,Opera,Bologna,44.494887,11.3426162
742p,Giorgio Consolini,18,Performer,"Canzone italiana, Musica popolare, Jazz, Rock and Roll",Bologna,44.494887,11.3426162
1061p,Luciano Alberici,30,Performer,Musica di scena,Bologna,44.494887,11.3426162
1066p,Luciano Sangiorgi,1,Performer,Musica euro-colta,Bologna,44.494887,11.3426162
1078p,Luigi Ferdinando Tagliavini,1,Performer,Musica euro-colta,Bologna,44.494887,11.3426162
1140p,Mario Bertolazzi,17,Performer,"Canzone francese, Canzone italiana, Canzone internazionale, Rock and Roll",Bologna,44.494887,11.3426162
1417p,Paola Penni,7,Performer,Commedia musicale,Bologna,44.494887,11.3426162
1555p,Raffaele Pisu,33,Performer,Commedia musicale,Bologna,44.494887,11.3426162
1596p,Rheno Jazz Gang,1,Performer,Jazz,Bologna,44.494887,11.3426162
1671p,Ruggero Oppi,2,Performer,"Canzone italiana, Canzone internazionale",Bologna,44.494887,11.3426162
1714p,Sergio Nardi,6,Performer,"Canzone italiana, Canzone internazionale, Jazz",Bologna,44.494887,11.3426162
1839p,Vittoria Mongardi,11,Performer,Canzone italiana,Bologna,44.494887,11.3426162
1843p,Vittorio Franceschi,1,Performer,"Musica popolare, Musica di scena",Bologna,44.494887,11.3426162
1858p,Walter Marcheselli,1,Performer,Canzone italiana,Bologna,44.494887,11.3426162
906p,Janine Dacosta,1,Performer,Musica euro-colta,Bordeaux,44.837789,-0.57918
1052p,Louis Backx,1,Performer,Musica euro-colta,"Borgerhout, Belgium",51.2225341,4.4368144
569p,Flaviano Labò,17,Performer,Opera,Borgonovo Val Tidone,45.0158427,9.4446698
893p,Ivo Vinco,34,Performer,Opera,Bosco Chiesanuova,45.6201376,11.0270741
147p,Arthur Mackenzie,1,Performer,Musica euro-colta,Boston,42.3600825,-71.0588801
495p,Enrico Fissore,1,Performer,Musica euro-colta,"Bra, Italy",44.6923429,7.8551164
383p,Delia Scala,202,Performer,Commedia musicale,Bracciano,42.1017979,12.1761422
561p,Filarmonica Slovacca,2,Performer,Musica euro-colta,Bratislava,48.1485965,17.1077478
1373p,Orchestra sinfonica della radio cecoslovacca,1,Performer,Musica euro-colta,Bratislava,48.1485965,17.1077478
313p,Claude Williamson,1,Performer,Jazz,"Brattleboro, Vermont, United States",42.8509152,-72.5578678
1912p,Anna Bonomelli,1,Performer,Musica euro-colta,"Brescia, Italy",40.6327278,17.9417616
150p,Arturo Benedetti Michelangeli,9,Performer,Musica euro-colta,"Brescia, Italy",40.6327278,17.9417616
535p,Ezio Marano,20,Performer,Cabaret,"Brescia, Italy",40.6327278,17.9417616
889p,Iside Minelli,1,Performer,Opera,"Brescia, Italy",40.6327278,17.9417616
1075p,Luigi Castellazzi,1,Performer,Musica euro-colta,"Brescia, Italy",40.6327278,17.9417616
1088p,Lydia Conter,2,Performer,Musica euro-colta,"Brescia, Italy",40.6327278,17.9417616
1144p,Mario Conter,2,Performer,Musica euro-colta,"Brescia, Italy",40.6327278,17.9417616
707p,Gianni Jaia,7,Performer,Opera,"Brescia, Italy",40.6327278,17.9417616
775p,Giustino Durano,76,Performer,"Musica di scena, Commedia musicale","Brescia, Italy",40.6327278,17.9417616
1401p,Othmar Maga,1,Performer,Musica euro-colta,"Brno, Cechia",49.1950602,16.6068371
1121p,Maria Manni Jottini,1,Performer,Musica euro-colta,"Broni, Italy",45.0642643,9.2569166
188p,Bill Miller,2,Performer,"Canzone italiana, Canzone internazionale, Jazz","Brooklyn, New York",40.6781784,-73.9441579
992p,Larry Ritchie,3,Performer,"Musica di scena, Jazz","Brooklyn, New York",40.6781784,-73.9441579
1005p,Lee Schaenen,1,Performer,Musica euro-colta,"Brooklyn, New York",40.6781784,-73.9441579
783p,Gloria Davy,8,Performer,Musica euro-colta,"Brooklyn, New York, Stati Uniti",40.6781784,-73.9441579
1879p,Wynton Kelly,1,Performer,Jazz,"Brooklyn, New York, Stati Uniti",40.6781784,-73.9441579
284p,Cecil Payne,3,Performer,"Musica di scena, Jazz","Brooklyn, New York, United States",40.6781784,-73.9441579
1600p,Riccardo Castagnone,1,Performer,Musica euro-colta,"Brunate, Como",45.8200931,9.0970379
950p,Jon Voicu,2,Performer,Musica euro-colta,"Bucarest, Romania",44.4267674,26.1025384
1717p,Sergiu Commissiona,1,Performer,Musica euro-colta,"Bucarest, Romania",44.4267674,26.1025384
308p,Clara Haskil,2,Performer,Musica euro-colta,"Bucharest, Romania",44.4267674,26.1025384
057p,Alessandro De Sved,1,Performer,"Musica euro-colta, Opera",Budapest,47.497912,19.040235
1917p,Annie Fisher,2,Performer,Musica euro-colta,Budapest,47.497912,19.040235
551p,Ferenc Fricsay,4,Performer,Musica euro-colta,Budapest,47.497912,19.040235
640p,Gabor Otvos,3,Performer,Musica euro-colta,Budapest,47.497912,19.040235
1507p,Quartetto di Budapest,2,Performer,Musica euro-colta,Budapest,47.497912,19.040235
1537p,Quartetto Tatrai,1,Performer,Musica euro-colta,Budapest,47.497912,19.040235
1538p,Quartetto Ungherese,1,Performer,Musica euro-colta,Budapest,47.497912,19.040235
1540p,Quartetto Végh,2,Performer,Musica euro-colta,Budapest,47.497912,19.040235
1774p,Thomas Ungar,1,Performer,Musica euro-colta,Budapest,47.497912,19.040235
669p,George Szell,4,Performer,Musica euro-colta,"Budapest, Ungheria",47.497912,19.040235
676p,Geza Anda,5,Performer,Musica euro-colta,"Budapest, Ungheria",47.497912,19.040235
808p,Gyory Cziffra,1,Performer,Musica euro-colta,"Budapest, Ungheria",47.497912,19.040235
813p,Hans Swarowski,1,Performer,Musica euro-colta,"Budapest, Ungheria",47.497912,19.040235
891p,Istvan Kertesz,6,Performer,Musica euro-colta,"Budapest, Ungheria",47.497912,19.040235
892p,Ivan Sardi,2,Performer,Musica euro-colta,"Budapest, Ungheria",47.497912,19.040235
994p,Laszlo Somogyi,5,Performer,Musica euro-colta,"Budapest, Ungheria",47.497912,19.040235
1022p,Lili Kraus,1,Performer,Musica euro-colta,"Budapest, Ungheria",47.497912,19.040235
1749p,Susanna Egri,2,Performer,"Balletto, Musica euro-colta, Musica popolare","Budapest, Ungheria",47.497912,19.040235
556p,Ferruccio Mazzoli,4,Performer,Opera,Budrio,44.5388539,11.5360478
043p,Alberto Lisy,1,Performer,Musica euro-colta,Buenos Aires,-34.6036844,-58.3815591
087p,Angel Pocho Gatti,1,Performer,Jazz,Buenos Aires,-34.6036844,-58.3815591
1493p,Pocho Gatti,1,Performer,Jazz,Buenos Aires,-34.6036844,-58.3815591
1597p,Ricardo Odnoposoff,2,Performer,Musica euro-colta,Buenos Aires,-34.6036844,-58.3815591
259p,Carlo Franci,5,Performer,Musica euro-colta,"Buenos Aires, Argentina",-34.6036844,-58.3815591
884p,Irma Bozzi Lucca,13,Performer,"Musica euro-colta, Opera","Buenos Aires, Argentina",-34.6036844,-58.3815591
1178p,Marta Argerich,3,Performer,Musica euro-colta,"Buenos Aires, Argentina",-34.6036844,-58.3815591
620p,Frank Dunlop,2,Performer,Jazz,"Buffalo, New York, Stati Uniti",42.8864468,-78.8783689
916p,Jim Hall,3,Performer,Jazz,"Buffalo, New York, Stati Uniti",42.8864468,-78.8783689
1199p,Mel Lewis,2,Performer,Jazz,"Buffalo, New York, Stati Uniti",42.8864468,-78.8783689
1487p,Pino Donaggio,1,Performer,"Canzone italiana, Jazz","Burano, Italy",45.4853906,12.4166562
1558p,Raina Kabaiwanska,7,Performer,Musica euro-colta,"Burgas, Bulgaria",42.5047926,27.4626361
1035p,Lisa Della Casa,5,Performer,Opera,"Burgdorf, Svizzera",47.0559357,7.6272243
638p,Fulvio Vernizzi,2,Performer,Musica euro-colta,"Busseto, Italy",44.9809317,10.0422552
1069p,Lucio Flauto,218,Performer,"Canzone italiana, Commedia musicale, Commedia musicale","Busto Arsizio, Italy",45.611892,8.8531265
1736p,Slavko Zlatic,1,Performer,Musica euro-colta,"Buzet, Istria, Croazia",45.4075606,13.9651276
1551p,Rafael Kubelik,8,Performer,"Musica euro-colta, Opera","Býchory, Czechia",50.067627,15.2734717
326p,Clem Sacco,11,Performer,"Commedia musicale, Rock and Roll","Cairo, Egypt",30.0444196,31.2357116
918p,Jimmy Fontana,4,Performer,"Canzone italiana, Jazz, Rock and Roll","Camerino, Italy",43.1356503,13.0683254
1100p,Mara Mays,1,Performer,Commedia musicale,"Campania, Italia",41.1099473,14.8475139
1643p,Rolando Panerai,16,Performer,Musica euro-colta,"Campi Bisenzio, Italy",43.8274885,11.1277659
1447p,Petre Munteanu,5,Performer,Musica euro-colta,"Câmpina, Romania",45.1369957,25.742141
039p,Alberto Bonucci,44,Performer,Commedia musicale,"Campobasso, Italy",41.5602544,14.6627161
1788p,Tony Dallara,10,Performer,"Canzone italiana, Canzone internazionale, Jazz, Rock and Roll","Campobasso, Italy",41.5602544,14.6627161
641p,Gabriel Tachinau,1,Performer,Musica euro-colta,"Cannes, France",43.552847,7.017369
1859p,Walter Marchetti,1,Performer,Commedia musicale,"Canosa di Puglia, Italy",41.2224319,16.0660707
461p,Elio Boncompagni,1,Performer,Musica euro-colta,"Caprese Michelangelo, Italy",43.6414543,11.9871321
883p,Ireneo Fuser,1,Performer,Musica euro-colta,"Carbonera, Italy",45.6871788,12.282465
1465p,Piero Mazzarella,72,Performer,"Musica di scena, Commedia musicale","Caresana, Italy",45.2215924,8.5063782
396p,Dino Dondi,14,Performer,Opera,"Casalecchio di Reno, Italy",44.4782469,11.2773797
996p,Laura Betti,33,Performer,"Canzone italiana, Canzone internazionale","Casalecchio di Reno, Italy",44.4782469,11.2773797
1298p,Nunzio Zappulla,1,Performer,Musica euro-colta,Caserta,41.0854362,14.367553
1910p,Angelo Musco,1,Performer,Musica euro-colta,Catania,37.5078772,15.0830304
096p,Angelo Rossi,3,Performer,Opera,Cava Manara,45.1409655,9.1055154
1016p,Lia Scutari,1,Performer,Canzone italiana,Cavarzere,45.1305442,12.080621
1931p,Orietta Berti,1,Performer,Canzone italiana,Cavriago,44.6923242,10.5238828
389p,Dickie Wells,2,Performer,Jazz,"Centerville, Tennessee, United States",35.7789565,-87.4669587
658p,Gastone Tassinari,6,Performer,Musica euro-colta,"Cento, Italy",44.7315319,11.2908156
1731p,Silvia Guidi,4,Performer,Jazz,"Cento, Italy",44.7315319,11.2908156
263p,Carlo Mariani,1,Performer,Musica euro-colta,"Cernusco sul Naviglio, Italy",45.5249795,9.3329595
1941p,Wilfred Middlebrooks,1,Performer,Jazz,"Chattanooga, Tennessee, Stati Uniti",35.0456297,-85.3096801
1669p,Rudolf Serkin,3,Performer,Musica euro-colta,"Cheb, Cechia",50.0795334,12.3698636
874p,Ida Haendel,2,Performer,Musica euro-colta,"Chełm, Polonia",51.1431232,23.4711986
403p,Dizzy Gillespie,4,Performer,Jazz,"Cheraw, South Carolina, United States",34.6976564,-79.8833971
621p,Frank Glazer,1,Performer,Musica euro-colta,"Chester, Wisconsin",43.5724544,-88.6916315
1766p,Thaddeus Kozouch,1,Performer,Musica euro-colta,"Chicago, Illinois, United States",41.8781136,-87.6297982
747p,Giorgio Tozzi,5,Performer,Opera,"Chicago, Illinois, United States",41.8781136,-87.6297982
968p,June Richmond,11,Performer,"Canzone italiana, Canzone internazionale, Jazz, Commedia musicale","Chicago, Illinois, United States",41.8781136,-87.6297982
1050p,Lou Levy,1,Performer,Jazz,"Chicago, Illinois, United States",41.8781136,-87.6297982
1623p,Robert Fizdale,1,Performer,Musica euro-colta,"Chicago, Illinois, United States",41.8781136,-87.6297982
1434p,Paul Strauss,5,Performer,Musica euro-colta,"Chicago, Illinois, United States",41.8781136,-87.6297982
1541p,Quincy Jones,2,Performer,Jazz,"Chicago, Illinois, United States",41.8781136,-87.6297982
1926p,Mario Rinaudo,4,Performer,Opera,"Chieti, Italy",42.347886,14.1635845
319p,Claudio Arrau,5,Performer,Musica euro-colta,"Chillán, Cile",-36.6062618,-72.1023351
320p,Claudio Gregorat,1,Performer,Musica euro-colta,"Chiopris-Viscone, Italy",45.9251844,13.3912731
260p,Carlo Franzini,4,Performer,Opera,"Cinisello Balsamo, Italy",45.5583553,9.2143838
433p,Eddie Calvert,7,Performer,"Canzone internazionale, Jazz, Rock and Roll","City of Preston, United Kingdom",53.8152896,-2.6932848
1450p,Phyllis Curtin,5,Performer,Opera,"Clarksburg, West Virginia, United States",39.2806451,-80.3445341
136p,Arlene Saunders,2,Performer,Opera,"Cleveland, Ohio, United States",41.49932,-81.6943605
372p,Dana Valery,2,Performer,Canzone italiana,"Codogno, Italy",45.1610569,9.7009465
687p,Gian Stellari,1,Performer,Canzone italiana,"Codogno, Italy",45.1610569,9.7009465
1710p,Sergio Franchi,1,Performer,Canzone italiana,"Codogno, Italy",45.1610569,9.7009465
401p,Disma de Cecco,5,Performer,Opera,"Codroipo, Italy",45.9574806,12.9916399
1208p,Michel Hausser,3,Performer,Jazz,"Colmar, Francia",48.0793589,7.358512
1049p,Lothar Faber,1,Performer,Musica euro-colta,"Cologne, Germany",50.937531,6.9602786
1342p,Orchestra di Radio Colonia,2,Performer,Musica euro-colta,"Cologne, Germany",50.937531,6.9602786
1379p,Orchestra sinfonica di Radio Colonia,2,Performer,Musica euro-colta,"Cologne, Germany",50.937531,6.9602786
1546p,Quintetto di fiati di Radio Colonia,1,Performer,Musica euro-colta,"Cologne, Germany",50.937531,6.9602786
1796p,Trio di Colonia,1,Performer,Musica euro-colta,"Cologne, Germany",50.937531,6.9602786
629p,Frederick Prausnitz,4,Performer,Musica euro-colta,"Cologne, Germany",50.937531,6.9602786
1871p,William Steinberg,2,Performer,Musica euro-colta,"Cologne, Germany",50.937531,6.9602786
1591p,Renzo Bossi,1,Performer,Musica euro-colta,"Como, Italy",45.8080597,9.0851765
1797p,Trio di Como,1,Performer,Musica euro-colta,"Como, Italy",45.8080597,9.0851765
1412p,Paco de Alba,6,Performer,"Balletto, Musica popolare","Conil de la Frontera, Spain",36.2780988,-6.0862071
900p,James Loomis,1,Performer,Musica euro-colta,"Conneaut, Ohio, United States",41.9475551,-80.5542409
942p,Johnny Ore,2,Performer,Jazz,"Contea di Crawford, Kansas, United States",37.455799,-94.8105955
1113p,Margherita Roberti,5,Performer,Opera,"Contea di Wayne, Iowa, United States",40.6677356,-93.3388917
931p,Joe Williams,2,Performer,Jazz,"Cordele, Georgia, United States",31.9635074,-83.7823938
1410p,Pablo Soza,1,Performer,Musica euro-colta,"Cordoba, Argentina",-31.4200833,-64.1887761
1907p,Andrè Jaunet,1,Performer,Musica euro-colta,"Corné, Loire-Authion, France",47.470827,-0.350232
330p,Colin Hicks,1,Performer,Commedia musicale,"Cornwall, United Kingdom",50.2660471,-5.0527125
824p,Henghel Gualdi,14,Performer,"Canzone italiana, Canzone internazionale","Correggio, Italy",44.7708574,10.7819083
412p,don Virgilio Bellone,1,Performer,Musica euro-colta,"Costigliole d'Asti, Italy",44.7865808,8.1821367
1920p,Art Farmer,1,Performer,Jazz,"Council Bluffs, Iowa, United States",41.2619444,-95.8608333
909p,Jean Jacques Grunenwald,1,Performer,Musica euro-colta,"Cran-Gevrier, Annecy, France",45.907737,6.106677
314p,Claudia Carbi,1,Performer,Musica euro-colta,"Cremona, Italy",45.133249,10.0226511
491p,Ennio Gerelli,2,Performer,Musica euro-colta,"Cremona, Italy",45.133249,10.0226511
772p,Giuseppe Modesti,6,Performer,"Musica euro-colta, Opera","Cremona, Italy",45.133249,10.0226511
1223p,Mina,3,Performer,"Canzone italiana, Rock and Roll","Cremona, Italy",45.133249,10.0226511
1808p,Ugo Tognazzi,10,Performer,"Canzone italiana, Commedia musicale","Cremona, Italy",45.133249,10.0226511
568p,Fiorenza Cossotto,22,Performer,Musica euro-colta,"Crescentino, Italy",45.1919142,8.1028002
1029p,Lino Patruno,1,Performer,Jazz,"Crotone, Italy",39.0807932,17.1271102
277p,Carolina Segrera,2,Performer,Musica popolare,Cuba,21.521757,-77.781167
1165p,Marisa Amoros,1,Performer,"Canzone italiana, Canzone internazionale",Cuba,21.521757,-77.781167
1665p,Ruben Calzado,1,Performer,"Canzone italiana, Canzone internazionale",Cuba,21.521757,-77.781167
1251p,Nella Colombo,6,Performer,Canzone italiana,"Cusano Milanino, Italy",45.55343,9.1844583
943p,Johnny Ray,2,Performer,"Jazz, Rock and Roll","Dallas, Oregon, United States",44.9192844,-123.3170472
920p,Jimmy Giuffre,2,Performer,Jazz,"Dallas, Texas, United States",32.7766642,-96.7969879
1299p,Nuovo quartetto danese,1,Performer,Musica euro-colta,Danimarca,56.26392,9.501785
228p,Bud Shank,1,Performer,Jazz,"Dayton, Ohio, United States",39.7589478,-84.1916069
1755p,Tamas Vasary,1,Performer,Musica euro-colta,"Debrecen, Ungheria",47.5316049,21.6273124
1192p,Max Bennet,2,Performer,Jazz,"Des Moines, Iowa, United States",41.5868353,-93.6249593
481p,Emilia Cundari,5,Performer,"Musica euro-colta, Opera","Detroit, Michigan, United States",42.331427,-83.0457538
586p,Francis Travis,1,Performer,Musica euro-colta,"Detroit, Michigan, United States",42.331427,-83.0457538
618p,Francoise Ogeas,1,Performer,Musica euro-colta,"Dijon, Côte-d'Or",47.322047,5.04148
1857p,Walter Gullino,21,Performer,Musica euro-colta,"Dilolo, Democratic Republic of the Congo",-10.6857884,22.3397377
1011p,Leonid Kogan,3,Performer,Musica euro-colta,"Dnipropetrovsk, Ucraina",48.464717,35.046183
229p,Buddy Clark,5,Performer,Jazz,"Dorchester, Boston, Massachusetts, United States",42.3016305,-71.067605
1099p,Manuela Bianchi Porro,4,Performer,Opera,"Dovadola, Italy",44.1234543,11.8844887
1668p,Rudolf Kempe,5,Performer,Musica euro-colta,"Dresda, Germania",51.0504088,13.7372621
1893p,Zvi Zeitlin,1,Performer,Musica euro-colta,"Dubroŭna, Bielorussia",54.5733824,30.6826689
429p,Dwike Mitchell,4,Performer,Jazz,"Dunedin, Florida, United States",28.0197404,-82.7717684
1232p,Dwike Mitchell,1,Performer,Jazz,"Dunedin, Florida, United States",28.0197404,-82.7717684
810p,Hans Gillesberger,2,Performer,Musica euro-colta,"Ebensee, Austria",47.8071383,13.779037
971p,Kammerorchester Wilhehm Stross,1,Performer,Musica euro-colta,"Eitorf, Germany",50.7693433,7.451174
1203p,Michael Dopson,2,Performer,Musica euro-colta,England,52.3555177,-1.1743197
1006p,Leny Escudero,12,Performer,"Canzone francese, Cabaret","Espinal, Spain",42.9787204,-1.367257
099p,Ann Schein,1,Performer,Musica euro-colta,"Evanston, Illinois, United States",42.0450722,-87.6876969
1833p,Virginia Babikian,1,Performer,Musica euro-colta,"Everett, Massachusetts, USA",42.40843,-71.0536625
1767p,The Four Saints,53,Performer,"Balletto, Canzone italiana, Canzone internazionale, Jazz, Rock and Roll","Everett, Washington",47.9789848,-122.2020795
1281p,Nilo Ossani,2,Performer,Canzone italiana,"Faenza, Italy",44.2898527,11.8774091
614p,Franco Ventifriglia,1,Performer,Musica popolare,"Fairfield, Connecticut, Stati Uniti",41.1408363,-73.2612615
730p,Gino Corcelli,1,Performer,"Canzone italiana, Jazz","Fano, Italy",43.8398164,13.0194201
831p,Herb Hellis,1,Performer,Jazz,"Farmersville, Texas, Stati Uniti",33.1634493,-96.3599821
1775p,Tina Brooks,3,Performer,"Musica di scena, Jazz","Fayetteville, Carolina del Nord, Stati Uniti",35.0526641,-78.8783585
446p,Egida Giordani Sartori,1,Performer,Musica euro-colta,"Feltre, Italy",46.0178511,11.9005837
010p,Accademia Corale della città di Ferrara,1,Performer,Musica euro-colta,"Ferrara, Italy",44.8381237,11.619787
055p,Aldo Ferraresi,1,Performer,Musica euro-colta,"Ferrara, Italy",44.8381237,11.619787
095p,Angelo Mercuriali,13,Performer,Opera,"Ferrara, Italy",44.8381237,11.619787
289p,Cesare Ferraresi,15,Performer,Musica euro-colta,"Ferrara, Italy",44.8381237,11.619787
432p,Edda Vincenzi,4,Performer,Opera,"Ferrara, Italy",44.8381237,11.619787
833p,Herbert Handt,7,Performer,"Musica euro-colta, Opera","Filadelfia, Pennsylvania, Stati Uniti",39.9525839,-75.1652215
1197p,McCoy Tyner,2,Performer,Jazz,"Filadelfia, Pennsylvania, Stati Uniti",39.9525839,-75.1652215
1741p,Stan Getz,5,Performer,Jazz,"Filadelfia, Pennsylvania, Stati Uniti",39.9525839,-75.1652215
070p,Alfredo Bianchini,2,Performer,"Musica euro-colta, Musica popolare, Opera","Firenze, Italy",43.7695604,11.2558136
341p,Complesso fiorentino di strumenti antichi,1,Performer,"Balletto, Musica euro-colta","Firenze, Italy",43.7695604,11.2558136
538p,Fantanicchio,1,Performer,"Canzone italiana, Jazz, Rock and Roll","Firenze, Italy",43.7695604,11.2558136
767p,Giuseppe Baratti,2,Performer,Musica euro-colta,"Firenze, Italy",43.7695604,11.2558136
887p,Isabella Del Bianco,44,Performer,Musica di scena,"Firenze, Italy",43.7695604,11.2558136
1148p,Mario Del Monaco,17,Performer,Opera,"Firenze, Italy",43.7695604,11.2558136
1169p,Marisa Fabbri,41,Performer,"Canzone internazionale, Musica di scena","Firenze, Italy",43.7695604,11.2558136
1324p,Orchestra da camera di Firenze,1,Performer,Musica euro-colta,"Firenze, Italy",43.7695604,11.2558136
1402p,Ottavio Fanfani,44,Performer,Musica di scena,"Firenze, Italy",43.7695604,11.2558136
1422p,Paolo Poli,146,Performer,"Cabaret, Canzone italiana, Commedia musicale, Musica euro-colta, Musica di scena, Musica popolare","Firenze, Italy",43.7695604,11.2558136
1425p,Paolo Washington,1,Performer,Musica euro-colta,"Firenze, Italy",43.7695604,11.2558136
1458p,Piero Bellugi,4,Performer,Musica euro-colta,"Firenze, Italy",43.7695604,11.2558136
1476p,Pietro Bellugi,5,Performer,Opera,"Firenze, Italy",43.7695604,11.2558136
1580p,Renato Giangrandi,1,Performer,Musica euro-colta,"Firenze, Italy",43.7695604,11.2558136
1693p,Sandro Materassi,1,Performer,Musica euro-colta,"Firenze, Italy",43.7695604,11.2558136
1737p,Società cameristica italiana di Firenze,1,Performer,Musica euro-colta,"Firenze, Italy",43.7695604,11.2558136
395p,Dino Ciani,1,Performer,Musica euro-colta,"Fiume, Croazia",45.3270631,14.442176
888p,Isacco Rinaldi,1,Performer,Musica euro-colta,"Flero, Brescia",45.4827412,10.1789011
185p,Big John Taylor,1,Performer,Rock and Roll,"Florida, United States",27.6648274,-81.5157535
414p,Dora Gatta,1,Performer,Opera,"Foggia, Italy",41.4621984,15.5446302
1033p,Lino Verde,1,Performer,Canzone italiana,"Foggia, Italy",41.4621984,15.5446302
115p,Anthony de Bonaventura,1,Performer,Musica euro-colta,"Follansbee, West Virginia, United States",40.3275693,-80.5959065
759p,Giulietta Simionato,35,Performer,Musica euro-colta,"Forlì, Italy",44.2227398,12.0407312
1648p,Romano Mussolini,5,Performer,"Canzone italiana, Jazz","Forlì, Italy",44.2227398,12.0407312
1467p,Piero Rattalino,1,Performer,Musica euro-colta,"Fossano, Italy",44.552479,7.7217934
825p,Henri Gui,4,Performer,Opera,France,46.227638,2.213749
1686p,Samson Francois,1,Performer,Musica euro-colta,"Francoforte sul Meno, Germania",50.1109221,8.6821267
1195p,Max Rudolf,1,Performer,Musica euro-colta,"Francoforte sul Meno, Germania",50.1109221,8.6821267
300p,Christa Ruppert,1,Performer,Musica euro-colta,"Francoforte sul Meno, Germania",50.1109221,8.6821267
1778p,Tino Buazzelli,51,Performer,Musica di scena,"Frascati, Italy",41.8085208,12.6761041
375p,Daniele Paris,1,Performer,Musica euro-colta,"Frosinone, Italy",41.6576528,13.6362715
945p,Jolanda Rossini,1,Performer,Canzone italiana,"Frugarolo, Italy",44.8377228,8.6800619
1174p,Marise Flach,43,Performer,Cabaret,"Garches, France",48.846066,2.188703
1372p,Orchestra sinfonica del Guatemala,2,Performer,"Balletto, Musica popolare",Gautemala,15.783471,-90.230759
240p,Carl Schuricht,1,Performer,Musica euro-colta,"Gdańsk, Poland",54.3520252,18.6466384
018p,Adelchi Amisano,1,Performer,Musica euro-colta,"Genova, Italy",44.4056499,8.946256
139p,Armando Celso,68,Performer,"Cabaret, Canzone italiana, Musica euro-colta, Musica popolare","Genova, Italy",44.4056499,8.946256
451p,Elda Bianchi,1,Performer,"Canzone italiana, Rock and Roll","Genova, Italy",44.4056499,8.946256
929p,Joe Sentieri,21,Performer,"Canzone italiana, Rock and Roll","Genova, Italy",44.4056499,8.946256
1028p,Lina Volonghi,42,Performer,Commedia musicale,"Genova, Italy",44.4056499,8.946256
1224p,Mira Selva,25,Performer,"Cabaret, Commedia musicale, Musica euro-colta","Genova, Italy",44.4056499,8.946256
1462p,Piero Francia,3,Performer,Opera,"Genova, Italy",44.4056499,8.946256
1466p,Piero Nuti,39,Performer,Musica di scena,"Genova, Italy",44.4056499,8.946256
1490p,Pippo Barzizza,1,Performer,Canzone italiana,"Genova, Italy",44.4056499,8.946256
1627p,Roberto Caruana,4,Performer,Musica euro-colta,"Genova, Italy",44.4056499,8.946256
1702p,Sergio Bonfanti,1,Performer,Musica euro-colta,"Genova, Italy",44.4056499,8.946256
1844p,Vittorio Gassman,39,Performer,"Musica euro-colta, Musica di scena","Genova, Italy",44.4056499,8.946256
167p,Balletto caucasico della repubblica georgiana,12,Performer,"Balletto, Musica popolare","Tblisi, Georgia",41.7151377,44.827096
009p,Abraham Comfort,1,Performer,Musica euro-colta,Germany,51.165691,10.451526
178p,Bernhard Conz,1,Performer,Musica euro-colta,Germany,51.165691,10.451526
821p,Helmut Hunger,2,Performer,Musica euro-colta,Germany,51.165691,10.451526
1814p,Umberto Fusco,3,Performer,"Canzone italiana, Canzone internazionale, Rock and roll","Giardini Naxos, Italy",37.822255,15.263367
823p,Helmut Roloff,1,Performer,Musica euro-colta,"Gießen, Germania",50.5840512,8.6784031
1919p,Arlette Eggman,1,Performer,Musica euro-colta,"Ginevra, Svizzera",46.2043907,6.1431577
553p,Fernando Corena,1,Performer,"Musica euro-colta, Opera","Ginevra, Svizzera",46.2043907,6.1431577
1475p,Pietro Argento,2,Performer,Musica euro-colta,"Gioia del Colle, Italy",40.7990706,16.9221587
1882p,Xavier Cugat,5,Performer,"Balletto, Canzone italiana, Canzone internazionale","Girona, Spain",41.9794005,2.8214264
671p,Georgia Davis,1,Performer,"Musica euro-colta, Musica popolare, Opera","Glenwood Springs, Colorado, United States",39.5505376,-107.3247762
402p,Dixie Blackstone,1,Performer,Musica euro-colta,"Globe, Arizona, United States",33.3942223,-110.7864984
1101p,Marcella Crudeli,2,Performer,Musica euro-colta,"Gondar, Etiopia",12.6030181,37.4521319
417p,Drago Starc,2,Performer,Musica euro-colta,"Gorizia, Italy",45.9401812,13.6201754
1219p,Milva,1,Performer,Canzone italiana,"Goro, Italy",44.8533376,12.2970671
1111p,Margherita Benetti,3,Performer,Opera,"Governolo, Italy",45.086678,10.9623512
973p,Karl Boehm,10,Performer,Opera,"Graz, Austria",47.070714,15.439504
717p,Gigi Pistilli,20,Performer,Cabaret,"Grosseto, Italy",42.7635254,11.1123634
092p,Angelo Corti,14,Performer,Cabaret,"Guastalla, Italy",44.9212351,10.6543959
923p,Jimmy Witherspoon,2,Performer,Jazz,"Gurdon, Arkansas, United States",33.9209365,-93.1540591
1887p,Zimra Ornatt,2,Performer,Opera,"Haifa, Israel",32.7940463,34.989571
936p,John Coltrane,3,Performer,Jazz,"Hamlet, North Carolina, United States",34.8848775,-79.6942222
1432p,Paul Hindemith,1,Performer,Musica euro-colta,"Hanau, Germany",50.1264123,8.9283105
816p,Harry Belafonte,4,Performer,"Canzone internazionale, Musica popolare","Harlem, New York, United States",40.8115504,-73.9464769
227p,Bud Powell,2,Performer,Jazz,"Harlem, New York, United States",40.8115504,-73.9464769
381p,Dean Dixon,1,Performer,Musica euro-colta,"Harlem, New York, United States",40.8115504,-73.9464769
448p,Elaine Delmar,25,Performer,Jazz,"Harpenden, United Kingdom",51.81846,-0.358953
031p,Agnes Giebel,4,Performer,Musica euro-colta,"Heerlen, Netherlands",50.8881742,5.9794988
1559p,Rama Jucker,1,Performer,Musica euro-colta,"Herisau, Switzerland",47.3857009,9.2798472
953p,Jose Kahan,1,Performer,Musica euro-colta,"Hermosillo, Mexico",29.0729673,-110.9559192
187p,Bill Haley,3,Performer,Rock and Roll,"Highland Park, Michigan, United States",42.4055925,-83.096868
623p,Frank Sinatra,2,Performer,"Canzone internazionale, Canzone italiana, Jazz","Hoboken, New Jersey, United States",40.7439905,-74.0323626
1452p,Pia Colombo,12,Performer,"Cabaret, Canzone francese","Homblières, France",49.849499,3.365755
1842p,Vittorio Congia,2,Performer,Commedia musicale,"Iglesias, Italy",39.3127514,8.5359582
1573p,Renato Capecchi,16,Performer,Musica euro-colta,"Cairo, Egypt",30.0444196,31.2357116
1023p,Lilian Terry,1,Performer,Jazz,"Cairo, Egypt",30.0444196,31.2357116
1929p,Nicola Zaccaria,4,Performer,Opera,"Pireas, Greece",37.9429857,23.6469832
668p,George Shirley,2,Performer,Opera,"Indianapolis, Indiana, United States",39.768403,-86.158068
1891p,Zoot Sims,3,Performer,Jazz,"Inglewood, California, United States",33.9616801,-118.3531311
1439p,Peppino di Capri,10,Performer,"Canzone italiana, Canzone internazionale, Jazz, Rock and Roll","Isola di Capri, Italy",40.5532009,14.222154
1291p,Nives Poli,1,Performer,Musica euro-colta,"Isola, Slovenia",45.5374048,13.6600802
1269p,Nicola Rossi Lemeni,4,Performer,Opera,"Istanbul, Turchia",41.0082376,28.9783589
1818p,Valeria Moriconi,44,Performer,Musica di scena,"Jesi, Italy",43.5270861,13.2463797
1869p,Wilhelm Kempff,2,Performer,Musica euro-colta,"Jüterbog, Germany",51.9964734,13.0756312
930p,Joe Turner,2,Performer,Jazz,"Kansas City, Missouri, United States",39.0997265,-94.5785667
195p,Bob Brookmayer,2,Performer,Jazz,"Kansas City, Missouri, United States",39.0997265,-94.5785667
1375p,Orchestra sinfonica della radio polacca,2,Performer,Musica euro-colta,"Katowice, Poland",50.2648919,19.0237815
521p,Ernst Busch,2,Performer,Canzone internazionale,"Kiel, Germany",54.3232927,10.1227651
822p,Helmut Melchert,4,Performer,Opera,"Kiel, Germany",54.3232927,10.1227651
977p,Karl Ristenpart,1,Performer,Musica euro-colta,"Kiel, Germany",54.3232927,10.1227651
060p,Alexander Brailowski,1,Performer,Musica euro-colta,"Kiel, Germany",54.3232927,10.1227651
062p,Alexander Uninsky,1,Performer,Musica euro-colta,"Kiel, Germany",54.3232927,10.1227651
907p,Jascha Orenstein,2,Performer,Musica euro-colta,"Kiev, Ucraina",50.4501,30.5234
1700p,Serge Lifar,2,Performer,"Balletto, Musica euro-colta","Kiev, Ucraina",50.4501,30.5234
1108p,Marek Jablonski,1,Performer,Musica euro-colta,"Krakow, Poland",50.0646501,19.9449799
886p,Isaac Stern,5,Performer,Musica euro-colta,"Kremenec', Ucraina",50.1078135,25.7276661
1787p,Tonino Pierfederici,32,Performer,Musica di scena,"La Maddalena, Italy",41.2165538,9.4047122
046p,Alberto Sorrentino,1,Performer,Commedia musicale,"La Spezia, Italy",44.1024504,9.8240826
315p,Claudia D'Antoni,1,Performer,Musica euro-colta,"La Spezia, Italy",44.1024504,9.8240826
528p,Ettore Gracis,17,Performer,Musica euro-colta,"La Spezia, Italy",44.1024504,9.8240826
651p,Gabriella Rossi,1,Performer,Musica euro-colta,"La Spezia, Italy",44.1024504,9.8240826
692p,Giancarlo Fusco,21,Performer,"Cabaret, Musica di scena","La Spezia, Italy",44.1024504,9.8240826
740p,Giorgio Azzolini,1,Performer,Jazz,"La Spezia, Italy",44.1024504,9.8240826
1179p,Marta Del Vecchio,1,Performer,Opera,"La Spezia, Italy",44.1024504,9.8240826
1942p,Pierre Colombo,1,Performer,Musica euro-colta,"La Tour-de-Peilz, Switzerland",46.4533165,6.8612781
455p,Elena Giusti,45,Performer,Commedia musicale,"Valletta, Malta",35.8989085,14.5145528
1338p,Orchestra della residenza dell'Aja,1,Performer,Musica euro-colta,"The Hague, Netherlands",52.0704978,4.3006999
1470p,Piero Toso,2,Performer,"Musica euro-colta, Musica di scena","Lama Polesine, Ceregnago, Italy",45.0498867,11.8696914
1835p,Virginio Puecher,20,Performer,Cabaret,"Lambrugo, Italy",45.760371,9.2415671
631p,Frieder Weissman,2,Performer,Musica euro-colta,"Langen, Germany",49.9914663,8.6634007
649p,Gabriella Giacobbe,43,Performer,Musica di scena,"L'Aquila, Italy",42.3498479,13.3995091
1453p,Pia Velsi,1,Performer,Commedia musicale,"L'Aquila, Italy",42.3498479,13.3995091
030p,Adriano Lualdi,3,Performer,"Musica euro-colta, Opera","Larino, Italy",41.8277421,14.9155243
683p,Gian Costello,1,Performer,Opera,"Latisana, Italy",45.7822908,12.9943424
1012p,Leontyne Price,1,Performer,"Opera, Balletto","Laurel, Mississippi, United States",31.6940509,-89.1306124
890p,Isidor Lateiner,2,Performer,Musica euro-colta,"L'Avana, Cuba",23.1135925,-82.3665956
1007p,Leonard Bernstein,4,Performer,Musica euro-colta,"Lawrence, Massachusetts, United States",42.7070354,-71.1631137
376p,Dany Dauberson,23,Performer,Canzone francese,"Le Creusot, France",46.805351,4.4278
034p,Aimè Duval,1,Performer,Canzone francese,"Le Val-d'Ajol, France",47.926193,6.484068
1666p,Rudolf Ewerhart,1,Performer,Musica euro-colta,"Lebach, Germany",49.4039607,6.9045054
1087p,Lya De Barberis,1,Performer,Musica euro-colta,"Lecce, Italy",40.3515155,18.1750161
011p,Accademia Corale di Lecco,2,Performer,Musica euro-colta,"Lecco, Italy",45.8565698,9.3976704
1828p,Vincenzo De Toma,41,Performer,"Canzone internazionale, Musica di scena","Lecco, Italy",45.8565698,9.3976704
642p,Gabriele Bellini,1,Performer,Musica euro-colta,"Legnago, Italy",45.1935965,11.303213
1117p,Maria Del Fante,5,Performer,Opera,"Legnago, Italy",45.1935965,11.303213
858p,I Legnanesi,172,Performer,"Commedia musicale, Musica popolare, Commedia musicale","Legnano, Italy",45.5983403,8.9142485
1468p,Piero Rolla,2,Performer,Canzone italiana,"Legnano, Italy",45.5983403,8.9142485
905p,Janine Andrade,1,Performer,Musica euro-colta,"Levallois-Perret, Francia",48.893217,2.287864
1014p,Les McCann,1,Performer,Jazz,"Lexington, Kentucky, Stati Uniti",38.0405837,-84.5037164
200p,Bobby Jaspar,1,Performer,Jazz,"Liège, Belgium",50.6329586,5.5697498
898p,Jacques Peltzer,4,Performer,Jazz,"Liège, Belgium",50.6329586,5.5697498
1442p,Peter Fischer,3,Performer,Canzone internazionale,"Liepzig, Germany",51.3396955,12.3730747
1073p,Luigi Alva,10,Performer,Opera,"Lima, Perù",-12.0463731,-77.042754
086p,Andres Segovia,3,Performer,Musica euro-colta,"Linares, Spain",38.0969098,-3.6369803
910p,Jean Martinon,1,Performer,Musica euro-colta,"Lione, Francia",45.764043,4.835659
1867p,Wilhelm Backhaus,6,Performer,Musica euro-colta,"Leipzig, Germany",51.3396955,12.3730747
1463p,Piero Giorgetti,3,Performer,"Canzone italiana, Canzone internazionale, Rock and Roll","Livorno, Italy",43.548473,10.3105674
1924p,Filarmonica Slovena di Liubiana,1,Performer,Musica euro-colta,"Ljubljana, Slovenia",46.0569465,14.5057515
1611p,Riki Gianco,1,Performer,"Canzone italiana, Jazz, Rock and Roll","Lodi, Italy",45.3097228,9.503716
149p,Arthur Rubinstein,4,Performer,Musica euro-colta,"Lodz, Poland",51.7592485,19.4559833
1433p,Paul Klecki,2,Performer,Musica euro-colta,"Łódź, Poland",51.7592485,19.4559833
1906p,Amy Shuard,3,Performer,Opera,"London, United Kingdom",51.5072178,-0.1275862
1041p,London Mozart Players,1,Performer,Musica euro-colta,"London, United Kingdom",51.5072178,-0.1275862
1768p,The golden age singers of London,1,Performer,Musica euro-colta,"London, United Kingdom",51.5072178,-0.1275862
328p,Clifford Curzon,3,Performer,Musica euro-colta,"London, United Kingdom",51.5072178,-0.1275862
559p,Filarmonica di Londra,2,Performer,Musica euro-colta,"London, United Kingdom",51.5072178,-0.1275862
1498p,Quartetto Amadeus,1,Performer,Musica euro-colta,"London, United Kingdom",51.5072178,-0.1275862
788p,Gloria Paul,93,Performer,Commedia musicale,"London, United Kingdom",51.5072178,-0.1275862
967p,Julius Katchen,1,Performer,Musica euro-colta,"Long Branch, New Jersey, Stati Uniti",40.3042778,-73.9923596
1711p,Sergio Lorenzi,4,Performer,Musica euro-colta,"Lonigo, Vicenza",45.3882751,11.3878624
1245p,Narciso Yepes,2,Performer,Musica euro-colta,"Lorca, Spagna",37.6735925,-1.6968357
230p,Buddy Collette,3,Performer,Jazz,"Los Angeles, California, United States",34.0522342,-118.2436849
1492p,Platters,24,Performer,"Canzone italiana, Canzone internazionale, Rock and Roll","Los Angeles, California, United States",34.0522342,-118.2436849
1034p,Lionel Hampton,9,Performer,"Canzone internazionale, Jazz, Commedia musicale","Louisville, Kentucky, Stati Uniti",38.2526647,-85.7584557
754p,Giovanni Tommaso,2,Performer,Jazz,"Lucca, Italy",43.8429197,10.5026977
1508p,Quartetto di Lucca,2,Performer,Jazz,"Lucca, Italy",43.8429197,10.5026977
208p,Bruno Amaducci,1,Performer,Musica euro-colta,"Lugano, Svizzera",46.0036778,8.951052
570p,Flavio Ambrosetti,3,Performer,Jazz,"Lugano, Svizzera",46.0036778,8.951052
587p,Franco Ambrosetti,1,Performer,Jazz,"Lugano, Svizzera",46.0036778,8.951052
204p,Bronislaw Gimpel,1,Performer,Musica euro-colta,"Lviv, Ukraine",49.839683,24.029717
599p,Franco Graziosi,32,Performer,Musica di scena,"Macerata, Italy",43.2984268,13.4534767
489p,Emmett Berry,2,Performer,Jazz,"Macon, Georgia, Stati Uniti",32.8406946,-83.6324022
1032p,Lino Troisi,39,Performer,Musica di scena,"Maddaloni, Italy",41.0367027,14.3812391
519p,Ernesto Halefter,1,Performer,"Musica euro-colta, Music colta contemporanea","Madrid, Spagna",40.4167754,-3.7037902
1509p,Quartetto di Madrid,1,Performer,Musica euro-colta,"Madrid, Spagna",40.4167754,-3.7037902
1763p,Teresa Berganza,9,Performer,Musica euro-colta,"Madrid, Spagna",40.4167754,-3.7037902
555p,Ferrando Ferrari,1,Performer,Opera,"Magreta, Italy",44.5982475,10.7950278
806p,Gustav Neidlinger,4,Performer,Opera,"Mainz, Germania",49.9928617,8.2472526
1488p,Pino Guerra,2,Performer,"Canzone italiana, Canzone internazionale","Manfredonia, Italy",41.6307347,15.9165105
1116p,Maria Callas,11,Performer,Opera,"Manhattan, New York, Stati Uniti",40.7830603,-73.9712488
173p,Bayanihan Philippine Company,11,Performer,"Balletto, Musica popolare","Manila, Philippines",14.5995124,120.9842195
024p,Adriana Lazzarini,13,Performer,Opera,"Mantova, Italy",45.1564168,10.7913751
288p,Clelia Gatti Aldovrandi,4,Performer,Musica euro-colta,"Mantova, Italy",45.1564168,10.7913751
1364p,Orchestra Philarmonica Hungarica,1,Performer,Musica euro-colta,"Marl, Germany",51.6591234,7.1060218
1095p,Magda Laszlo,3,Performer,Musica euro-colta,Marosvásárhely,46.5385862,24.5514392
1564p,Regina Crespin,4,Performer,Opera,"Marseille, France",43.296482,5.36978
1189p,Maurice Bejart,2,Performer,"Musica euro-colta, Balletto","Marseille, France",43.296482,5.36978
1699p,Serge Baduo,4,Performer,Opera,"Marseille, France",43.296482,5.36978
1888p,Zino Francescatti,4,Performer,Musica euro-colta,"Marseille, France",43.296482,5.36978
737p,Gioconda De Vito,6,Performer,Musica euro-colta,Martina Franca,40.7028666,17.3392645
1455p,Pier Emilio Bassi,20,Performer,"Canzone italiana, Canzone internazionale, Rock and Roll","Martinengo, Italy",45.5568014,9.7717427
1939p,Virginio Bianchi,1,Performer,Musica euro-colta,"Massarosa, Italy",43.8720628,10.3373655
411p,Don Marino Barreto Junior,11,Performer,"Canzone italiana, Canzone internazionale, Rock and Roll, Commedia musicale","Matanzas, Cuba",23.0303395,-81.5322149
1441p,Perez Prado,2,Performer,Commedia musicale,"Matanzas, Cuba",23.0303395,-81.5322149
233p,Byron Janis,2,Performer,Musica euro-colta,"McKeesport, Pennsylvania, United States",40.3470671,-79.8641232
667p,George Joyner,25,Performer,"Musica di scena, Jazz","Memphis, Tennessee, Stati Uniti",35.1495343,-90.0489801
1290p,Ninos cantores de Murialdo,1,Performer,"Musica euro-colta, Musica popolare","Mendoza, Argentina",-32.8894587,-68.8458386
680p,Giacomo Rondinella,3,Performer,Canzone italiana,"Messina, Italy",38.1937335,15.5542057
1477p,Pietro Bottazzo,3,Performer,Opera,"Mestrino, Italy",45.4430405,11.7576379
168p,Balletto Nazionale Messicano,12,Performer,"Balletto, Musica popolare",Mexico,23.634501,-102.552784
919p,Jimmy Garrison,2,Performer,Jazz,"Miami, Florida, Stati Uniti",25.7616798,-80.1917902
852p,I Campioni,12,Performer,"Canzone italiana, Canzone internazionale, Rock and roll","Milan, Italy",45.4642035,9.189982
023p,Adriana Del Poggio,3,Performer,"Canzone italiana, Canzone internazionale","Milan, Italy",45.4642035,9.189982
028p,Adriano Celentano,28,Performer,"Canzone italiana, Canzone internazionale, Jazz, Rock and Roll","Milan, Italy",45.4642035,9.189982
033p,Aida Accolla,1,Performer,Balletto,"Milan, Italy",45.4642035,9.189982
038p,Alberto Baldan Bembo,1,Performer,Jazz,"Milan, Italy",45.4642035,9.189982
042p,Alberto Lionello,42,Performer,Commedia musicale,"Milan, Italy",45.4642035,9.189982
045p,Alberto Rabagliati,7,Performer,"Canzone italiana, Canzone internazionale, Musica popolare","Milan, Italy",45.4642035,9.189982
047p,Alberto Zedda,6,Performer,"Musica euro-colta, Opera","Milan, Italy",45.4642035,9.189982
053p,Aldo Ceccato,1,Performer,"Canzone italiana, Canzone internazionale, Jazz","Milan, Italy",45.4642035,9.189982
069p,Alfredo Antonini,1,Performer,Musica euro-colta,"Milan, Italy",45.4642035,9.189982
094p,Angelo Mazza,1,Performer,Musica euro-colta,"Milan, Italy",45.4642035,9.189982
101p,Anna D'Amico,2,Performer,"Canzone italiana, Canzone internazionale","Milan, Italy",45.4642035,9.189982
110p,Anna Nogara,31,Performer,"Musica popolare, Musica di scena, Opera","Milan, Italy",45.4642035,9.189982
122p,Antonio Balista,7,Performer,Musica euro-colta,"Milan, Italy",45.4642035,9.189982
151p,Arturo Testa,1,Performer,Canzone italiana,"Milan, Italy",45.4642035,9.189982
181p,Betty Curtis,1,Performer,Canzone italiana,"Milan, Italy",45.4642035,9.189982
183p,Biancamaria Casoni,15,Performer,Musica euro-colta,"Milan, Italy",45.4642035,9.189982
203p,Bovisa New Orleans Jazz Band,2,Performer,Jazz,"Milan, Italy",45.4642035,9.189982
214p,Bruno Giuranna,2,Performer,Musica euro-colta,"Milan, Italy",45.4642035,9.189982
243p,Carla Fracci,15,Performer,"Musica euro-colta, Balletto","Milan, Italy",45.4642035,9.189982
244p,Carla Macelloni,33,Performer,Commedia musicale,"Milan, Italy",45.4642035,9.189982
252p,Carlo Cataneo,14,Performer,Musica di scena,"Milan, Italy",45.4642035,9.189982
257p,Carlo Emanuele Ricordi,1,Performer,Musica euro-colta,"Milan, Italy",45.4642035,9.189982
261p,Carlo Hinterman,76,Performer,"Commedia musicale, Musica di scena","Milan, Italy",45.4642035,9.189982
268p,Carlo Pestalozza,3,Performer,Musica euro-colta,"Milan, Italy",45.4642035,9.189982
309p,Clara Petrella,5,Performer,Opera,"Milan, Italy",45.4642035,9.189982
318p,Claudio Abbado,13,Performer,"Musica euro-colta, Opera","Milan, Italy",45.4642035,9.189982
332p,Compagnia del Piccolo Teatro,169,Performer,Musica di scena,"Milan, Italy",45.4642035,9.189982
352p,Coro della Scala,1,Performer,"Musica euro-colta, Opera","Milan, Italy",45.4642035,9.189982
357p,Coro Polifonico di Milano,3,Performer,Musica euro-colta,"Milan, Italy",45.4642035,9.189982
362p,Cosetta Colla,33,Performer,Musica di scena,"Milan, Italy",45.4642035,9.189982
363p,Cosetta Ivana,1,Performer,"Canzone italiana, Canzone internazionale","Milan, Italy",45.4642035,9.189982
380p,Davide Mosconi,3,Performer,Jazz,"Milan, Italy",45.4642035,9.189982
419p,Due Corsari,2,Performer,"Canzone italiana, Rock and Roll","Milan, Italy",45.4642035,9.189982
431p,Edda Ponti,1,Performer,Musica euro-colta,"Milan, Italy",45.4642035,9.189982
453p,Elena Borgo,42,Performer,Musica di scena,"Milan, Italy",45.4642035,9.189982
458p,Elettra Morini,4,Performer,"Balletto, Musica euro-colta, Opera","Milan, Italy",45.4642035,9.189982
462p,Elio Cantamessa,1,Performer,Musica euro-colta,"Milan, Italy",45.4642035,9.189982
463p,Elio Crovetto,10,Performer,"Canzone italiana, Commedia musicale","Milan, Italy",45.4642035,9.189982
496p,Enrico Intra,19,Performer,"Canzone italiana, Jazz, Musica di scena","Milan, Italy",45.4642035,9.189982
498p,Enrico Mainardi,5,Performer,Musica euro-colta,"Milan, Italy",45.4642035,9.189982
505p,Enza Ferrari,1,Performer,Musica euro-colta,"Milan, Italy",45.4642035,9.189982
507p,Enzo Jannacci,33,Performer,"Canzone italiana, Musica popolare, Jazz","Milan, Italy",45.4642035,9.189982
511p,Eraldo Volontè,7,Performer,"Canzone italiana, Jazz, Rock and Roll","Milan, Italy",45.4642035,9.189982
515p,Ermanno Roveri,65,Performer,"Commedia musicale, Musica di scena","Milan, Italy",45.4642035,9.189982
527p,Ettore Conti,97,Performer,"Musica di scena, Musica popolare, Commedia musicale","Milan, Italy",45.4642035,9.189982
534p,Evelina Sironi,57,Performer,"Canzone italiana, Musica popolare, Commedia musicale","Milan, Italy",45.4642035,9.189982
544p,Federico Monti Arduini,1,Performer,Canzone italiana,"Milan, Italy",45.4642035,9.189982
566p,Fiorella Bini,1,Performer,Canzone italiana,"Milan, Italy",45.4642035,9.189982
567p,Fiorella Cova,2,Performer,Opera,"Milan, Italy",45.4642035,9.189982
576p,Franca Aldrovandi,1,Performer,Jazz,"Milan, Italy",45.4642035,9.189982
580p,Franca Valeri,23,Performer,Commedia musicale,"Milan, Italy",45.4642035,9.189982
591p,Franco Cerri,18,Performer,"Canzone internazionale, Canzone italiana, Musica euro-colta, Musica di scena, Jazz","Milan, Italy",45.4642035,9.189982
607p,Franco Parenti,22,Performer,Musica di scena,"Milan, Italy",45.4642035,9.189982
616p,Franco Verganti,2,Performer,Musica euro-colta,"Milan, Italy",45.4642035,9.189982
661p,Gene Colonnello,4,Performer,Canzone italiana,"Milan, Italy",45.4642035,9.189982
678p,Ghigo,1,Performer,"Canzone italiana, Rock and Roll","Milan, Italy",45.4642035,9.189982
691p,Giancarlo Cobelli,78,Performer,"Cabaret, Canzone italiana, Musica euro-colta, Musica di scena, Opera","Milan, Italy",45.4642035,9.189982
695p,Gianfranco Spinelli,13,Performer,Musica euro-colta,"Milan, Italy",45.4642035,9.189982
702p,Gianni Bonagura,33,Performer,Commedia musicale,"Milan, Italy",45.4642035,9.189982
703p,Gianni Cajafa,144,Performer,"Commedia musicale, Musica di scena","Milan, Italy",45.4642035,9.189982
714p,Gigi Chichellero,1,Performer,"Canzone italiana, Canzone internazionale, Jazz","Milan, Italy",45.4642035,9.189982
720p,Gilberto Cuppini,16,Performer,"Canzone italiana, Musica popolare, Jazz","Milan, Italy",45.4642035,9.189982
726p,Gina Consolandi,8,Performer,Opera,"Milan, Italy",45.4642035,9.189982
729p,Gino Bramieri,88,Performer,Commedia musicale,"Milan, Italy",45.4642035,9.189982
738p,Gioiettia Paoli Padova,1,Performer,Musica euro-colta,"Milan, Italy",45.4642035,9.189982
741p,Giorgio Buratto,1,Performer,Jazz,"Milan, Italy",45.4642035,9.189982
743p,Giorgio Gaber,26,Performer,"Canzone italiana, Canzone internazionale, Jazz, Musica popolare, Rock and Roll","Milan, Italy",45.4642035,9.189982
744p,Giorgio Gaslini,7,Performer,"Musica euro-colta, Canzone italiana, Musica euro-colta, Jazz","Milan, Italy",45.4642035,9.189982
761p,Giulio Confalonieri,2,Performer,Musica popolare,"Milan, Italy",45.4642035,9.189982
766p,Giuseppe Aliprandi,1,Performer,Jazz,"Milan, Italy",45.4642035,9.189982
778p,Glauco Masetti,12,Performer,"Canzone italiana, Canzone internazionale, Jazz, Rock and Roll","Milan, Italy",45.4642035,9.189982
802p,Guido Camillucci,1,Performer,"Musica euro-colta, Musica di scena","Milan, Italy",45.4642035,9.189982
868p,I solisti di Milano,1,Performer,Musica euro-colta,"Milan, Italy",45.4642035,9.189982
940p,Johnny Dorelli,6,Performer,"Canzone italiana, Musica popolare","Milan, Italy",45.4642035,9.189982
964p,Jula De Palma,1,Performer,"Canzone italiana, Rock and Roll","Milan, Italy",45.4642035,9.189982
1008p,Leonardo Leonardi,1,Performer,Musica euro-colta,"Milan, Italy",45.4642035,9.189982
1024p,Liliana Cosi,1,Performer,Balletto,"Milan, Italy",45.4642035,9.189982
1026p,Liliana Zoboli,20,Performer,Cabaret,"Milan, Italy",45.4642035,9.189982
1059p,Luciana Savignano,1,Performer,Balletto,"Milan, Italy",45.4642035,9.189982
1067p,Luciano Tajoli,28,Performer,"Canzone italiana, Commedia musicale, Rock and Roll","Milan, Italy",45.4642035,9.189982
1080p,Luigi Ottolini,2,Performer,Musica euro-colta,"Milan, Italy",45.4642035,9.189982
1104p,Marcello Abbado,7,Performer,Musica euro-colta,"Milan, Italy",45.4642035,9.189982
1122p,Maria Monti,36,Performer,"Canzone italiana, Canzone internazionale, Jazz, Musica popolare, Rock and Roll, Commedia musicale","Milan, Italy",45.4642035,9.189982
1149p,Mario Delli Ponti,2,Performer,Musica euro-colta,"Milan, Italy",45.4642035,9.189982
1172p,Marisa Traversi,66,Performer,Commedia musicale,"Milan, Italy",45.4642035,9.189982
1191p,Maurizio Pollini,8,Performer,Musica euro-colta,"Milan, Italy",45.4642035,9.189982
1212p,Milan College Jazz Band,1,Performer,Jazz,"Milan, Italy",45.4642035,9.189982
1213p,Milan College Jazz Society,8,Performer,"Jazz, Rock and Roll","Milan, Italy",45.4642035,9.189982
1214p,Milano Dixieland Group,2,Performer,Jazz,"Milan, Italy",45.4642035,9.189982
1244p,Nanni Svampa,48,Performer,Musica di scena,"Milan, Italy",45.4642035,9.189982
1274p,Nicoletta Ramorino,6,Performer,Opera,"Milan, Italy",45.4642035,9.189982
1275p,Nicolò Castiglioni,1,Performer,Musica euro-colta,"Milan, Italy",45.4642035,9.189982
1285p,Nino Rota,1,Performer,Musica euro-colta,"Milan, Italy",45.4642035,9.189982
1296p,Nuccia Bongiovanni,2,Performer,"Canzone italiana, Rock and Roll","Milan, Italy",45.4642035,9.189982
1297p,Nuccio Ambrosino,48,Performer,Musica di scena,"Milan, Italy",45.4642035,9.189982
1300p,Nuovo quartetto di Milano,4,Performer,Musica euro-colta,"Milan, Italy",45.4642035,9.189982
1302p,Nuto Navarrini,110,Performer,"Canzone italiana, Commedia musicale, Musica di scena, Operetta, Jazz","Milan, Italy",45.4642035,9.189982
1341p,Orchestra da camera dell'Angelicum,98,Performer,"Musica euro-colta, Balletto, Musica euro-colta, Musica popolare, Musica euro-colta, Opera","Milan, Italy",45.4642035,9.189982
1330p,Orchestra d'archi di Milano,1,Performer,Musica euro-colta,"Milan, Italy",45.4642035,9.189982
1331p,Orchestra dei Pomeriggi Musicali,102,Performer,"Musica euro-colta, Jazz","Milan, Italy",45.4642035,9.189982
1339p,Orchestra del Teatro alla Scala,480,Performer,"Balletto, Musica euro-colta","Milan, Italy",45.4642035,9.189982
1334p,Orchestra della RAI di Milano,45,Performer,Musica euro-colta,"Milan, Italy",45.4642035,9.189982
1354p,Orchestra Impallomeni,1,Performer,"Canzone italiana, Canzone internazionale","Milan, Italy",45.4642035,9.189982
1386p,Original Lambro Jazz Band,16,Performer,"Canzone italiana, Canzone internazionale, Jazz, Rock and Roll","Milan, Italy",45.4642035,9.189982
1391p,Ornella Vanoni,39,Performer,"Canzone francese, Canzone italiana, Canzone internazionale, Musica euro-colta, Musica di scena, Musica popolare, Opera, Jazz","Milan, Italy",45.4642035,9.189982
1404p,Ottetto da camera di Giorgio Gaslini,1,Performer,"Musica euro-colta, Jazz","Milan, Italy",45.4642035,9.189982
1454p,Piccolo complesso di Milano,2,Performer,Musica euro-colta,"Milan, Italy",45.4642035,9.189982
1460p,Piero De Palma,31,Performer,Musica euro-colta,"Milan, Italy",45.4642035,9.189982
1471p,Piero Trombetta,1,Performer,Canzone italiana,"Milan, Italy",45.4642035,9.189982
1494p,Polifonica Ambrosiana,103,Performer,Musica euro-colta,"Milan, Italy",45.4642035,9.189982
1496p,Pupo De Luca,4,Performer,Jazz,"Milan, Italy",45.4642035,9.189982
1505p,Quartetto della Scala,3,Performer,Musica euro-colta,"Milan, Italy",45.4642035,9.189982
1510p,Quartetto di Milano (jazz),2,Performer,Jazz,"Milan, Italy",45.4642035,9.189982
1518p,Quartetto Franco Cerri,1,Performer,Jazz,"Milan, Italy",45.4642035,9.189982
1532p,Quartetto Radar,46,Performer,"Canzone italiana, Commedia musicale, Rock and Roll","Milan, Italy",45.4642035,9.189982
1543p,Quintetto Basso-Valdambrini,2,Performer,Jazz,"Milan, Italy",45.4642035,9.189982
1568p,Renata Mauro,29,Performer,"Canzone italiana, Commedia musicale","Milan, Italy",45.4642035,9.189982
1619p,Riverside Jazz Band,65,Performer,"Canzone italiana, Jazz, Rock and Roll","Milan, Italy",45.4642035,9.189982
1629p,Roberto Lupi,1,Performer,Musica euro-colta,"Milan, Italy",45.4642035,9.189982
1631p,Roberto Negri,1,Performer,Musica euro-colta,"Milan, Italy",45.4642035,9.189982
1635p,Roby Milione,3,Performer,"Canzone italiana, Canzone internazionale, Rock and Roll","Milan, Italy",45.4642035,9.189982
1636p,Rocky Mountains,2,Performer,"Jazz, Rock and Roll","Milan, Italy",45.4642035,9.189982
1637p,Rocky Mountains Old Time Stompers,2,Performer,Jazz,"Milan, Italy",45.4642035,9.189982
1638p,Rodolfo Bonetto,2,Performer,"Musica euro-colta, Jazz","Milan, Italy",45.4642035,9.189982
1652p,Rosella Masseglia Natali,1,Performer,"Canzone italiana, Rock and Roll","Milan, Italy",45.4642035,9.189982
1655p,Rosita Bentivegna,3,Performer,"Musica euro-colta, Musica di scena","Milan, Italy",45.4642035,9.189982
1689p,Sandra Mondaini,213,Performer,Commedia musicale,"Milan, Italy",45.4642035,9.189982
1712p,Sergio Marzorati,1,Performer,Musica euro-colta,"Milan, Italy",45.4642035,9.189982
1743p,Stefania Malagù,14,Performer,Musica euro-colta,"Milan, Italy",45.4642035,9.189982
1779p,Tino Carraro,363,Performer,"Canzone internazionale, Musica euro-colta, Musica di scena, Musica popolare","Milan, Italy",45.4642035,9.189982
1781p,Tino Scotti,55,Performer,"Musica popolare, Commedia musicale","Milan, Italy",45.4642035,9.189982
1789p,Tony De Vita Quartet,3,Performer,"Canzone italiana, Canzone internazionale","Milan, Italy",45.4642035,9.189982
1790p,Tony Renis,5,Performer,"Canzone italiana, Rock and Roll","Milan, Italy",45.4642035,9.189982
1815p,Valentina Fortunato,135,Performer,Musica di scena,"Milan, Italy",45.4642035,9.189982
1829p,Vincenzo Menghini,2,Performer,Musica euro-colta,"Milan, Italy",45.4642035,9.189982
1847p,Vittorio Paltrinieri,10,Performer,"Canzone italiana, Canzone internazionale, Jazz","Milan, Italy",45.4642035,9.189982
1849p,Vittorio Sforzi,1,Performer,"Canzone italiana, Commedia musicale","Milan, Italy",45.4642035,9.189982
1855p,Walter Battagliola,1,Performer,Musica euro-colta,"Milan, Italy",45.4642035,9.189982
1864p,Wera Nepy,10,Performer,"Canzone italiana, Canzone internazionale, Jazz, Rock and Roll","Milan, Italy",45.4642035,9.189982
1873p,Wilma De Angelis,5,Performer,"Canzone italiana, Jazz, Rock and Roll","Milan, Italy",45.4642035,9.189982
1961p,Quartetto di Milano (classica),3,Performer,Musica euro-colta,"Milan, Italy",45.4642035,9.189982
1962p,Tony De Vita,2,Performer,Jazz,"Milan, Italy",45.4642035,9.189982
697p,Gianna Galli,3,Performer,Opera,"Modena, Italy",44.647128,10.9252269
1227p,Mirella Freni,5,Performer,Opera,"Modena, Italy",44.647128,10.9252269
1495p,Primo Borali,1,Performer,Musica euro-colta,"Modena, Italy",44.647128,10.9252269
1225p,Miranda Martino,1,Performer,"Canzone italiana, Jazz, Rock and Roll","Moggio Udinese, Italy",46.4693107,13.1913977
634p,Fritz Buechtger,1,Performer,Musica euro-colta,"Monaco di Baviera, Germania",48.1351253,11.5819805
1236p,Muncher Kammerensemble,1,Performer,Musica euro-colta,"Monaco di Baviera, Germania",48.1351253,11.5819805
1536p,quartetto Stross di Monaco,1,Performer,Musica euro-colta,"Monaco di Baviera, Germania",48.1351253,11.5819805
1878p,Wolfgang Sawallisch,2,Performer,Musica euro-colta,"Monaco di Baviera, Germania",48.1351253,11.5819805
1715p,Sergio Renda,1,Performer,Canzone italiana,"Moncalieri, Italy",44.9983525,7.6802878
689p,Gianbruna Rizzardini,4,Performer,Opera,"Monfalcone, Italy",45.8050468,13.5331727
736p,Gino Paoli,5,Performer,"Canzone italiana, Jazz","Monfalcone, Italy",45.8050468,13.5331727
1105p,Marco Ratti,2,Performer,Jazz,"Monopoli, Italy",40.9525166,17.2985559
1885p,Yves Montand,3,Performer,Canzone francese,"Monsummano Terme, Italy",43.86922,10.8146443
128p,Antonio Janigro,2,Performer,Musica euro-colta,"Montagano, Italy",41.65525,14.670443
1473p,Pierre Boulez,1,Performer,Musica euro-colta,"Montbrison, France",45.60745,4.063338
1377p,Orchestra sinfonica dell'Opera di Montecarlo,1,Performer,Musica euro-colta,Monte Carlo,43.7400718,7.4266436
1159p,Mario Pisu,21,Performer,Commedia musicale,"Montecchio Emilia, Italy",44.6986949,10.4466072
1615p,Rino Salviati,9,Performer,"Canzone italiana, Commedia musicale","Montelibretti, Italy",42.1355435,12.7379621
157p,Aurelio Fierro,1,Performer,Canzone italiana,"Montella, Italy",40.8402258,15.0263014
073p,Alfredo Speranza,1,Performer,Musica euro-colta,"Montevideo, Uruguay",-34.9011127,-56.1645314
1246p,Nat King Cole,2,Performer,Jazz,"Montgomery, Alabama, Stati Uniti",32.3792233,-86.3077368
1250p,Nell Rankin,4,Performer,Opera,"Montgomery, Alabama, Stati Uniti",32.3792233,-86.3077368
1810p,Umberto Benedetti Michelangeli,1,Performer,Musica euro-colta,"Montichiari, Italy",45.4148389,10.3928713
966p,Juliette Greco,20,Performer,Canzone francese,"Montpellier, France",43.610769,3.876716
1187p,Maureen Forrester,2,Performer,Musica euro-colta,"Montréal, Canada",45.5016889,-73.567256
1393p,Oscar Peterson,8,Performer,Jazz,"Montréal, Canada",45.5016889,-73.567256
1612p,Rina Sala Gallo,1,Performer,Musica euro-colta,"Monza, Italy",45.5845001,9.2744485
1876p,Winy Vagliani,6,Performer,"Canzone italiana, Musica popolare, Jazz","Morbegno, Italy",46.1355055,9.5660745
1601p,Riccardo Mantani,35,Performer,Musica di scena,"Morciano di Romagna, Italy",43.9111534,12.6479422
1757p,Teatro dei burattini di Mosca,14,Performer,Musica di scena,"Moscow, Russia",55.755826,37.6172999
984p,Kiril Kondrascin,3,Performer,Musica euro-colta,"Moscow, Russia",55.755826,37.6172999
1851p,Vladimir Vogel,1,Performer,Musica euro-colta,"Moscow, Russia",55.755826,37.6172999
166p,Balletto Beriozka,3,Performer,"Balletto, Musica popolare","Moscow, Russia",55.755826,37.6172999
336p,Compagnia nazionale di danze popolari dell'URSS,4,Performer,Musica popolare,"Moscow, Russia",55.755826,37.6172999
770p,Giuseppe Di Stefano,6,Performer,Opera,"Motta Sant'Anastasia, Italy",37.5129431,14.969807
1110p,Marga Hoffgen,1,Performer,Musica euro-colta,"Mülheim an der Ruhr, Germania",51.4185682,6.8845226
1892p,Zubin Mehta,3,Performer,Musica euro-colta,"Mumbai, India",19.0759837,72.8776559
350p,Coro della Bayrischer Rundfunk,2,Performer,Musica euro-colta,"Munich, Germany",48.1351253,11.5819805
071p,Alfredo Kraus,7,Performer,Opera,"Municipality of Las Palmas, Spain",28.1008837,-15.4653897
760p,Giulio Bertola,4,Performer,Musica euro-colta,"Murano, Italy",45.4589863,12.3523452
409p,Don Byas,7,Performer,"Canzone internazionale, Jazz","Muskogee, Oklahoma, United States",35.7478769,-95.3696909
1754p,Takahiro Sonoda,1,Performer,Musica euro-colta,"Nakano, Tokyo, Giappone",35.7075331,139.6637591
281p,Catherine Sauvage,13,Performer,"Canzone internazionale, Canzone francese","Nancy, France",48.692054,6.184417
1667p,Rudolf Firkusny,3,Performer,Musica euro-colta,"Napajedla, Cechia",49.1715578,17.5119527
014p,Accademia Musicale Napoletana,1,Performer,Musica euro-colta,"Naples, Italy",40.8517983,14.26812
054p,Aldo Ciccolini,3,Performer,Musica euro-colta,"Naples, Italy",40.8517983,14.26812
075p,Alighiero Noschese,55,Performer,"Musica popolare, Commedia musicale","Naples, Italy",40.8517983,14.26812
089p,Angela Luce,22,Performer,"Canzone napoletana, Musica di scena","Naples, Italy",40.8517983,14.26812
174p,Beniamino Maggio,2,Performer,Commedia musicale,"Naples, Italy",40.8517983,14.26812
211p,Bruno Canino,21,Performer,Musica euro-colta,"Naples, Italy",40.8517983,14.26812
405p,Domenico D'Ascoli,2,Performer,Musica euro-colta,"Naples, Italy",40.8517983,14.26812
509p,Enzo Salluzzi,1,Performer,"Canzone italiana, Canzone internazionale","Naples, Italy",40.8517983,14.26812
541p,Fausto Cigliano,17,Performer,"Canzone italiana, Jazz","Naples, Italy",40.8517983,14.26812
549p,Ferdinando Guarnieri,1,Performer,Musica euro-colta,"Naples, Italy",40.8517983,14.26812
610p,Franco Sportelli,93,Performer,Musica di scena,"Naples, Italy",40.8517983,14.26812
624p,Fratelli De Vico,2,Performer,Commedia musicale,"Naples, Italy",40.8517983,14.26812
645p,Gabriella Andreini,44,Performer,Commedia musicale,"Naples, Italy",40.8517983,14.26812
660p,Gegè Di Giacomo,1,Performer,"Canzone italiana, Canzone internazionale","Naples, Italy",40.8517983,14.26812
983p,Kiki Bernasconi,1,Performer,Musica euro-colta,"Naples, Italy",40.8517983,14.26812
1064p,Luciano Glori,4,Performer,Commedia musicale,"Naples, Italy",40.8517983,14.26812
1129p,Maria Tipo,3,Performer,Musica euro-colta,"Naples, Italy",40.8517983,14.26812
1147p,Mario De Vico,1,Performer,Commedia musicale,"Naples, Italy",40.8517983,14.26812
1151p,Mario Festa,22,Performer,"Canzone napoletana, Musica di scena","Naples, Italy",40.8517983,14.26812
1574p,Renato Carosone,2,Performer,"Canzone italiana, Canzone internazionale, Jazz, Rock and Roll","Naples, Italy",40.8517983,14.26812
1578p,Renato Fasano,4,Performer,Musica euro-colta,"Naples, Italy",40.8517983,14.26812
1599p,Riccardo Brengola,1,Performer,Musica euro-colta,"Naples, Italy",40.8517983,14.26812
1630p,Roberto Murolo,7,Performer,Canzone napoletana,"Naples, Italy",40.8517983,14.26812
1672p,Ruggero Cori,50,Performer,"Musica di scena, Commedia musicale","Naples, Italy",40.8517983,14.26812
1709p,Sergio Fiorentino,1,Performer,Musica euro-colta,"Naples, Italy",40.8517983,14.26812
1791p,Totò Ruta,1,Performer,"Canzone italiana, Canzone internazionale","Naples, Italy",40.8517983,14.26812
1937p,Ugo D'Alessio,22,Performer,"Canzone napoletana, Musica di scena","Naples, Italy",40.8517983,14.26812
1837p,Vittoria Crispo,22,Performer,"Musica di scena, Canzone napoletana","Naples, Italy",40.8517983,14.26812
1841p,Vittorio Caprioli,23,Performer,Commedia musicale,"Naples, Italy",40.8517983,14.26812
1055p,Lucia Valeri,4,Performer,Commedia musicale,"Naples, Italy",40.8517983,14.26812
1084p,Luisa Conte,22,Performer,"Canzone napoletana, Musica di scena","Naples, Italy",40.8517983,14.26812
1138p,Mario Abbate,1,Performer,"Canzone italiana, Commedia musicale","Naples, Italy",40.8517983,14.26812
1160p,Mario Ronga,1,Performer,"Canzone italiana, Canzone internazionale","Naples, Italy",40.8517983,14.26812
1287p,Nino Taranto,28,Performer,"Canzone napoletana, Musica di scena","Naples, Italy",40.8517983,14.26812
1289p,Nino Veglia,22,Performer,"Canzone napoletana, Musica di scena","Naples, Italy",40.8517983,14.26812
1424p,Paolo Spagnolo,2,Performer,Musica euro-colta,"Naples, Italy",40.8517983,14.26812
293p,Charles Trenet,4,Performer,Canzone francese,"Narbona, France",43.184277,3.003078
078p,Alvino Misciano,14,Performer,Opera,"Narni, Italy",42.5176022,12.5156299
814p,Harold Bradley,11,Performer,Commedia musicale,"Nashville, Tennessee, Stati Uniti",36.1626638,-86.7816016
235p,Calvin Lockhart,11,Performer,Commedia musicale,"Nassau, Bahamas",25.0443312,-77.3503609
656p,Gastone Limarilli,5,Performer,Opera,"Nervesa della Battaglia, Italy",45.8201764,12.2022592
1047p,Lorin Maazel,8,Performer,Musica euro-colta,"Neuilly-sur-Seine, Francia",48.884831,2.26851
1764p,Teresa Stich Randall,2,Performer,Musica euro-colta,"New Hartford, Connecticut, Stati Uniti",41.8793214,-72.9751693
1263p,Newell Jenkins,2,Performer,Musica euro-colta,"New Hartford, Connecticut, Stati Uniti",41.8793214,-72.9751693
539p,Fats Domino,2,Performer,Rock and Roll,"New Orleans, Louisiana, Stati Uniti",29.9510658,-90.0715323
1051p,Louis Armstrong,3,Performer,Jazz,"New Orleans, Louisiana, Stati Uniti",29.9510658,-90.0715323
1725p,Sidney Bechet,2,Performer,"Jazz, Rock and Roll","New Orleans, Louisiana, Stati Uniti",29.9510658,-90.0715323
006p,Abbe Lane,5,Performer,"Canzone internazionale, Balletto, Canzone italiana","New York, New York, Stati Uniti",40.7127753,-74.0059728
007p,Abbey Simon,1,Performer,Musica euro-colta,"New York, New York, Stati Uniti",40.7127753,-74.0059728
145p,Art Taylor,2,Performer,Jazz,"New York, New York, Stati Uniti",40.7127753,-74.0059728
531p,Eugenia Hyman,1,Performer,Musica euro-colta,"New York, New York, Stati Uniti",40.7127753,-74.0059728
560p,Filarmonica di New York,2,Performer,Musica euro-colta,"New York, New York, Stati Uniti",40.7127753,-74.0059728
625p,Fraternity Brothers,1,Performer,Rock and Roll,"New York, New York, Stati Uniti",40.7127753,-74.0059728
819p,Helen Merrill,1,Performer,Jazz,"New York, New York, Stati Uniti",40.7127753,-74.0059728
525p,Ethel Barrymore Colt,1,Performer,"Musica euro-colta, Opera","New York, New York, Stati Uniti",40.7127753,-74.0059728
982p,Kenny Drew,3,Performer,"Musica di scena, Jazz","New York, New York, Stati Uniti",40.7127753,-74.0059728
1176p,Marlena Kessick,2,Performer,Musica euro-colta,"New York, New York, Stati Uniti",40.7127753,-74.0059728
1180p,Martin Ritt,1,Performer,Musica euro-colta,"New York, New York, Stati Uniti",40.7127753,-74.0059728
1235p,Modern Jazz Quartet,4,Performer,Jazz,"New York, New York, Stati Uniti",40.7127753,-74.0059728
1262p,New York Pro Musica,1,Performer,Musica euro-colta,"New York, New York, Stati Uniti",40.7127753,-74.0059728
1933p,Ron Jefferson,1,Performer,Jazz,"New York, New York, Stati Uniti",40.7127753,-74.0059728
1883p,Yehudi Menuhin,1,Performer,Musica euro-colta,"New York, New York, Stati Uniti",40.7127753,-74.0059728
302p,Chuck Israels,1,Performer,Jazz,"New York, New York, Stati Uniti",40.7127753,-74.0059728
306p,Claire Watson,4,Performer,Opera,"New York, New York, Stati Uniti",40.7127753,-74.0059728
413p,Donald Nold,7,Performer,Musica euro-colta,"New York, New York, Stati Uniti",40.7127753,-74.0059728
830p,Henry Wright,2,Performer,"Canzone italiana, Canzone internazionale, Canzone napoletana, Rock and Roll","Newark, New Jersey, United States",40.735657,-74.1723667
347p,Connie Francis,1,Performer,"Canzone italiana, Canzone internazionale, Canzone napoletana, Rock and Roll","Newark, New Jersey, United States",40.735657,-74.1723667
468p,Ella Fitzgerald,7,Performer,Jazz,"Newport News, Virginia, Stati Uniti",37.0870821,-76.4730122
172p,Barney Wilen,2,Performer,Jazz,"Nice, France",43.7101728,7.2619532
1190p,Maurice Gendron,1,Performer,Musica euro-colta,"Nice, France",43.7101728,7.2619532
135p,Archie Savage,11,Performer,Commedia musicale,"Norfolk, United Kingdom",52.6139686,0.8864021
548p,Felix Cameroni,90,Performer,"Canzone italiana, Canzone internazionale","Novara, Italy",45.44693,8.6221612
1077p,Luigi Colonna,1,Performer,Musica euro-colta,"Novara, Italy",45.44693,8.6221612
1347p,Orchestra Felix Cameroni,20,Performer,"Canzone italiana, Canzone internazionale","Novara, Italy",45.44693,8.6221612
611p,Franco Tagliavini,2,Performer,Opera,"Novellara, Italy",44.8492956,10.7317542
522p,Ernst Groeschel,1,Performer,Musica euro-colta,"Nuremberg, Germany",49.4521018,11.0766654
542p,Fausto Denis,1,Performer,Canzone italiana,"Nuvolento, Italy",45.5450757,10.3841257
523p,Ernst Maerzendorfer,1,Performer,Musica euro-colta,"Oberndorf bei Salzburg, Austria",47.9420257,12.9433887
478p,Elvio Modonesi,1,Performer,Musica euro-colta,"Occhiobello, Italy",44.9244683,11.6013945
379p,David Oistrakh,3,Performer,Musica euro-colta,"Odesa, Ukraine",46.482526,30.7233095
416p,Dory Dorika,50,Performer,"Commedia musicale, Musica di scena","Odesa, Ukraine",46.482526,30.7233095
480p,Emile Ghilels,1,Performer,Musica euro-colta,"Odesa, Ukraine",46.482526,30.7233095
1247p,Nathan Milstein,14,Performer,Musica euro-colta,"Odesa, Ukraine",46.482526,30.7233095
922p,Jimmy Rushing,2,Performer,Jazz,"Oklahoma City, Oklahoma, Stati Uniti",35.4675602,-97.5164276
938p,John Modinos,3,Performer,"Musica euro-colta, Opera","Omodos, Cyprus",34.8492616,32.8098601
1806p,Ugo Calise,6,Performer,Canzone napoletana,"Oratino, Campobasso",41.5846237,14.5855106
1428p,Paul Anka,4,Performer,"Canzone internazionale, Jazz","Ottawa, Canada",45.4215296,-75.6971931
321p,Claudio Scimone,4,Performer,Musica euro-colta,"Padova, Italy",45.4064349,11.8767611
647p,Gabriella Carturan,1,Performer,Musica euro-colta,"Padova, Italy",45.4064349,11.8767611
871p,I solisti veneti,1,Performer,Musica euro-colta,"Padova, Italy",45.4064349,11.8767611
1171p,Marisa Rampin,1,Performer,"Canzone italiana, Commedia musicale","Padova, Italy",45.4064349,11.8767611
1193p,Max Cassoli,2,Performer,"Musica euro-colta, Musica di scena","Padova, Italy",45.4064349,11.8767611
1328p,Orchestra da camera olandese,2,Performer,Musica euro-colta,Netherlands,52.132633,5.291266
1332p,Orchestra della Gioventù Musicale Olandese,1,Performer,Musica euro-colta,Netherlands,52.132633,5.291266
1830p,Vinicio Cocchieri,3,Performer,Opera,"Pagliare del Tronto, Spinetoli",42.8741868,13.7810579
1133p,Mariella Adani,7,Performer,Opera,"Palanzano, Italy",44.4406066,10.2039477
052p,Aldo Bennici,2,Performer,Musica euro-colta,"Palermo, Italy",38.11569,13.3614868
304p,Ciccio Ingrassia,73,Performer,Commedia musicale,"Palermo, Italy",38.11569,13.3614868
361p,Corrado Lojacono,3,Performer,"Canzone italiana, Jazz","Palermo, Italy",38.11569,13.3614868
588p,Franco Calabrese,20,Performer,Musica euro-colta,"Palermo, Italy",38.11569,13.3614868
597p,Franco Franchi,86,Performer,"Canzone italiana, Canzone internazionale, Commedia musicale, Commedia musicale","Palermo, Italy",38.11569,13.3614868
603p,Franco Mannino,5,Performer,Musica euro-colta,"Palermo, Italy",38.11569,13.3614868
1131p,Mariano Stabile,8,Performer,Opera,"Palermo, Italy",38.11569,13.3614868
1288p,Nino Terzo,3,Performer,Commedia musicale,"Palermo, Italy",38.11569,13.3614868
1381p,Orchestra Sinfonica Siciliana,1,Performer,Musica euro-colta,"Palermo, Italy",38.11569,13.3614868
459p,Elettra Romani,1,Performer,Commedia musicale,"Paliano, Italy",41.8056147,13.0545966
435p,Edith Martelli,21,Performer,Opera,"Palvareto, Italy",44.4455274,9.6995657
355p,Coro di Pamplona,1,Performer,Musica euro-colta,"Pamplona, Spain",42.812526,-1.6457745
578p,Franca Rame,176,Performer,Musica di scena,"Parabiago, Italy",45.5493675,8.9375245
088p,Angel Sanabria,8,Performer,"Balletto, Musica popolare",Paraguay,-23.442503,-58.443832
1409p,Pablo Morel,13,Performer,"Balletto, Commedia musicale, Musica popolare",Paraguay,-23.442503,-58.443832
1617p,Rita Renoir,2,Performer,Cabaret,"Paris, France",48.856614,2.3522219
1634p,Roberts Casadeus,1,Performer,Musica euro-colta,"Paris, France",48.856614,2.3522219
1679p,Sacha Distel,1,Performer,"Canzone italiana, Canzone internazionale, Commedia musicale","Paris, France",48.856614,2.3522219
1771p,Theatre National Populaire,13,Performer,Musica di scena,"Paris, France",48.856614,2.3522219
196p,Bob Castella,3,Performer,Canzone francese,"Paris, France",48.856614,2.3522219
280p,Caterina Valente,3,Performer,"Canzone internazionale, Canzone italiana, Jazz, Rock and Roll","Paris, France",48.856614,2.3522219
672p,Gerard Sety,1,Performer,Canzone francese,"Paris, France",48.856614,2.3522219
674p,Germaine Montero,6,Performer,"Canzone francese, Musica popolare","Paris, France",48.856614,2.3522219
913p,Jenny Astruc,59,Performer,"Canzone italiana, Canzone internazionale, Commedia musicale","Paris, France",48.856614,2.3522219
1098p,Manuel Rosenthal,2,Performer,Musica euro-colta,"Paris, France",48.856614,2.3522219
1361p,Orchestra nazionale di Parigi,2,Performer,Musica euro-colta,"Paris, France",48.856614,2.3522219
063p,Alexis Roland-Manuel,1,Performer,Musica euro-colta,"Paris, France",48.856614,2.3522219
165p,Ballet-Theatre de Paris,2,Performer,"Musica euro-colta, Balletto","Paris, France",48.856614,2.3522219
186p,Bill Coleman,3,Performer,Jazz,"Paris, France",48.856614,2.3522219
331p,Comedie Francaise,4,Performer,Opera,"Paris, France",48.856614,2.3522219
345p,Complesso vocale e strumentale della Radiotelevisione francese,1,Performer,Musica euro-colta,"Paris, France",48.856614,2.3522219
349p,Cori della Radiotelevisione Francese,2,Performer,Musica euro-colta,"Paris, France",48.856614,2.3522219
503p,Ensemble Baroque de Paris,4,Performer,Musica euro-colta,"Paris, France",48.856614,2.3522219
795p,Groupe du theatre antique de la Sorbonne,4,Performer,"Canzone francese, Musica di scena","Paris, France",48.856614,2.3522219
1474p,Pierre Philippe,10,Performer,"Canzone francese, Musica di scena","Paris, France",48.856614,2.3522219
1523p,Quartetto Loewenguth di Parigi,1,Performer,Musica euro-colta,"Paris, France",48.856614,2.3522219
1524p,Quartetto Margand,1,Performer,Musica euro-colta,"Paris, France",48.856614,2.3522219
1527p,Quartetto Parrenin,3,Performer,Musica euro-colta,"Paris, France",48.856614,2.3522219
311p,Claude Helffer,1,Performer,Musica euro-colta,"Paris, France",48.856614,2.3522219
312p,Claude Luter,1,Performer,Jazz,"Paris, France",48.856614,2.3522219
1048p,Los Incas,8,Performer,"Balletto, Muisica popolare","Paris, France",48.856614,2.3522219
501p,Enrico Tagliavini,1,Performer,Musica euro-colta,"Parma, Italy",44.801485,10.3279036
1306p,Olga Gherardi,4,Performer,Opera,"Parma, Italy",44.801485,10.3279036
1435p,Paula,1,Performer,Canzone italiana,"Parma, Italy",44.801485,10.3279036
1594p,Renzo Robuschi,2,Performer,Musica euro-colta,"Parma, Italy",44.801485,10.3279036
1854p,Walter Baracchi,4,Performer,Musica euro-colta,"Parma, Italy",44.801485,10.3279036
226p,Buck Clayton,4,Performer,Jazz,"Parsons, Kansas, United States",37.3403384,-95.2610838
836p,Herbie Lewis,1,Performer,Jazz,"Pasadena, California, Stati Uniti",34.1477849,-118.1445155
1909p,Andreja Preger,1,Performer,Musica euro-colta,"Pécs, Hungary",46.0727345,18.232266
735p,Gino Negri,1,Performer,Musica euro-colta,"Perledo, Italy",46.0158066,9.2949157
1437p,Pauline O'Connor,2,Performer,Musica euro-colta,"Perth, Australia",-31.9523123,115.861309
120p,Antonietta Stella,28,Performer,Opera,"Perugia, Italy",43.1107168,12.3908279
644p,Gabriele Santini,16,Performer,Opera,"Perugia, Italy",43.1107168,12.3908279
1210p,Michele Ricciardini,44,Performer,Musica di scena,"Perugia, Italy",43.1107168,12.3908279
1576p,Renato Ercolani,4,Performer,Opera,"Perugia, Italy",43.1107168,12.3908279
141p,Arnaldo Ninchi,44,Performer,Musica di scena,"Pesaro, Italy",43.9124756,12.9155494
777p,Glauco Mari,44,Performer,Musica di scena,"Pesaro, Italy",43.9124756,12.9155494
1570p,Renata Tebaldi,15,Performer,Opera,"Pesaro, Italy",43.9124756,12.9155494
190p,Billie Holiday,3,Performer,Jazz,"Philadelphia, Pennsylvania, United States",39.9525839,-75.1652215
276p,Carol Toscano,3,Performer,"Musica euro-colta, Opera","Philadelphia, Pennsylvania, United States",39.9525839,-75.1652215
121p,Antonino Votto,75,Performer,"Balletto, Musica euro-colta, Opera","Piacenza, Italy",45.0526206,9.6929845
1216p,Mills Brothers,1,Performer,Jazz,"Piqua, Ohio, United States",40.1447732,-84.2424449
1457p,Piero Bastianelli,2,Performer,Musica euro-colta,"Pisa, Italy",43.7228386,10.4016888
197p,Bob Cooper,1,Performer,Jazz,"Pittsburgh, Pennsylvania, United States",40.4406248,-79.9958864
1664p,Roy Eldrige,2,Performer,Jazz,"Pittsburgh, Pennsylvania, United States",40.4406248,-79.9958864
981p,Kenny Clarke,1,Performer,Jazz,"Pittsburgh, Pennsylvania, United States",40.4406248,-79.9958864
1430p,Paul Chambers,1,Performer,Jazz,"Pittsburgh, Pennsylvania, United States",40.4406248,-79.9958864
1562p,Ray Brown,1,Performer,Jazz,"Pittsburgh, Pennsylvania, United States",40.4406248,-79.9958864
202p,Boris Christoff,16,Performer,Opera,"Plovdiv, Bulgaria",42.1354079,24.7452904
1707p,Sergio Endrigo,8,Performer,"Canzone italiana, Canzone internazionale, Jazz, Rock and Roll","Pola, Croazia",44.8666232,13.8495788
406p,Domenico Modugno,83,Performer,"Canzone italiana, Commedia musicale","Polignano a Mare, Italy",40.9948946,17.22261
017p,Achille Togliani,7,Performer,"Canzone italiana, Musica popolare, Commedia musicale","Pomponesco, Italy",44.9297794,10.5974087
475p,Elvin Jones,2,Performer,Jazz,"Pontiac, Michigan, Stati Uniti",42.6389216,-83.2910468
1228p,Mirella Parutto,2,Performer,Musica euro-colta,"Pordenone, Italy",45.9563684,12.661452
1021p,Liisa Karhilo,1,Performer,Musica euro-colta,"Pori, Finland",61.4851393,21.7974179
1773p,Thomas Schippers,5,Performer,Opera,"Portage, Michigan, Stati Uniti",42.2011538,-85.5800022
842p,Horacina Correa,1,Performer,"Jazz, Rock and Roll","Porto Alegre, Brasil",-30.0368176,-51.2089887
1201p,Meme Bianchi,1,Performer,Canzone italiana,"Porto Ceresio, Italy",45.9042858,8.8994799
066p,Alfonso Marchica,3,Performer,Opera,"Porto Empedocle, Italy",37.2881801,13.5271724
222p,Bruno Rosettani,6,Performer,Canzone italiana,"Porto Sant'Elpidio, Italy",43.2564658,13.7595021
378p,Dave Bailey,1,Performer,Jazz,"Portsmouth, Virginia, United States",36.8354258,-76.2982742
1325p,Orchestra da Camera di Praga,1,Performer,Musica euro-colta,"Praga, Cechia",50.0755381,14.4378005
1348p,Orchestra filarmonica di Praga,1,Performer,Musica euro-colta,"Praga, Cechia",50.0755381,14.4378005
1512p,Quartetto di Praga,1,Performer,Musica euro-colta,"Praga, Cechia",50.0755381,14.4378005
960p,Joseph Suk,1,Performer,Musica euro-colta,"Praga, Cechia",50.0755381,14.4378005
1625p,Robert Haas,1,Performer,Musica euro-colta,"Praga, Cechia",50.0755381,14.4378005
1868p,Wilhelm Huebner,1,Performer,Musica euro-colta,"Praga, Cechia",50.0755381,14.4378005
622p,Frank Pelleg,1,Performer,Musica euro-colta,"Praga, Cechia",50.0755381,14.4378005
1521p,Quartetto Koeckert,1,Performer,Musica euro-colta,"Praga, Cechia",50.0755381,14.4378005
1152p,Mario Giorgetti,33,Performer,Musica di scena,"Prato, Italy",43.8777049,11.102228
949p,Jon Vickers,5,Performer,Opera,"Prince Albert, Canada",53.2033494,-105.7530705
1083p,Luis Morondo,1,Performer,Musica euro-colta,"Puente la Reina, Spain",42.6723037,-1.8135943
675p,Gerry Mulligan,5,Performer,Jazz,"Queens Village, New York, Stati Uniti",40.7282239,-73.7948516
1684p,Salvatore Puma,4,Performer,Opera,"Racalmuto, Agrigento",37.4086814,13.7323321
275p,Carmen Villani,1,Performer,"Canzone italiana, Rock and Roll","Ravarino, Italy",44.7489014,11.1010791
1572p,Renata Villani,8,Performer,Opera,"Ravarino, Italy",44.7489014,11.1010791
917p,Jim Reider,2,Performer,Jazz,"Reading, Pennsylvania, United States",40.3356483,-75.9268747
366p,Count Basie,2,Performer,Jazz,"Red Bank, New Jersey, United States",40.3470543,-74.0643065
1827p,Vigilio Piubeni,16,Performer,"Canzone italiana, Musica popolare","Redondesco, Mantova, Italy",45.1684137,10.5141897
397p,Dino Piana,2,Performer,Jazz,"Refrancore, Italy",44.9366267,8.3436465
437p,Edmonda Aldini,50,Performer,Musica di scena,"Reggio Emilia, Italy",44.6989932,10.6296859
1519p,Quartetto italiano,6,Performer,Musica euro-colta,"Reggio Emilia, Italy",44.6989932,10.6296859
1823p,Vanni Catellani,2,Performer,"Canzone italiana, Canzone internazionale","Reggio Emilia, Italy",44.6989932,10.6296859
134p,Antonio Zarbini,4,Performer,Opera,"Reggiolo, Italy",44.9177593,10.8025268
1400p,Otello Profazio,2,Performer,"Balletto, Canzone italiana, Musica euro-colta, Musica popolare, Jazz","Rende, Italy",39.3317751,16.1839028
220p,Bruno Prevedi,2,Performer,Opera,"Revere, Italy",45.0544177,11.1331057
1832p,Virgilio Mortari,1,Performer,Musica euro-colta,"Rho, Italy",45.5326476,9.0396122
1204p,Michael Mattos,3,Performer,"Musica di scena, Jazz","Rio de Janeiro, Brazil",-22.9068467,-43.1728965
790p,Gorni Kramer,6,Performer,"Canzone italiana, Jazz","Rivarolo Mantovano, Italy",45.0749016,10.4443904
1554p,Raffaele Giangrande,41,Performer,Canzone internazionale,"Roccasecca, Italy",41.5526829,13.6703925
1723p,Severino Gazzelloni,7,Performer,Musica euro-colta,"Roccasecca, Italy",41.5526829,13.6703925
1772p,Thelonius Monk,2,Performer,Jazz,"Rocky Mount, Carolina del Nord, Stati Uniti",35.9382103,-77.7905339
016p,Achille Braschi,8,Performer,Opera,"Rome, Italy",41.9027835,12.4963655
067p,Alfonso Thomas,1,Performer,Commedia musicale,"Rome, Italy",41.9027835,12.4963655
068p,Alfredo Adami,2,Performer,"Balletto, Canzone internazionale","Rome, Italy",41.9027835,12.4963655
076p,Almerindo D'Amato,1,Performer,Musica euro-colta,"Rome, Italy",41.9027835,12.4963655
105p,Anna Maria Ferrero,44,Performer,Commedia musicale,"Rome, Italy",41.9027835,12.4963655
217p,Bruno Martino,18,Performer,Canzone italiana,"Rome, Italy",41.9027835,12.4963655
271p,Carlo Zecchi,7,Performer,Musica euro-colta,"Rome, Italy",41.9027835,12.4963655
286p,Cecilia Fusco,14,Performer,Musica euro-colta,"Rome, Italy",41.9027835,12.4963655
317p,Claudia Mori,27,Performer,Commedia musicale,"Rome, Italy",41.9027835,12.4963655
360p,Coro Universitario Romano,1,Performer,Musica euro-colta,"Rome, Italy",41.9027835,12.4963655
394p,Dino Asciolla,1,Performer,Musica euro-colta,"Rome, Italy",41.9027835,12.4963655
398p,Gino Sinimberghi,1,Performer,Opera,"Rome, Italy",41.9027835,12.4963655
408p,Domenico Torrebruno,1,Performer,Musica euro-colta,"Rome, Italy",41.9027835,12.4963655
440p,Edoardo Vianello,60,Performer,"Commedia musicale, Musica di scena","Rome, Italy",41.9027835,12.4963655
573p,Flora Lillo,50,Performer,"Commedia musicale, Musica di scena","Rome, Italy",41.9027835,12.4963655
583p,Francesco Mander,4,Performer,Musica euro-colta,"Rome, Italy",41.9027835,12.4963655
652p,Gabriella Tucci,13,Performer,Opera,"Rome, Italy",41.9027835,12.4963655
655p,Gastone Bartolucci,14,Performer,Musica di scena,"Rome, Italy",41.9027835,12.4963655
677p,Gherardo Macarini Carmignani,2,Performer,Musica euro-colta,"Rome, Italy",41.9027835,12.4963655
685p,Gian Giacomo Guelfi,5,Performer,Opera,"Rome, Italy",41.9027835,12.4963655
873p,I virtuosi di Roma,4,Performer,Musica euro-colta,"Rome, Italy",41.9027835,12.4963655
914p,Jenny Luna,1,Performer,"Canzone italiana, Rock and Roll","Rome, Italy",41.9027835,12.4963655
1107p,Marco Tulli,1,Performer,Musica di scena,"Rome, Italy",41.9027835,12.4963655
1134p,Marina Bonfigli,74,Performer,"Canzone internazionale, Musica di scena","Rome, Italy",41.9027835,12.4963655
1142p,Mario Carotenuto,59,Performer,Commedia musicale,"Rome, Italy",41.9027835,12.4963655
1143p,Mario Castellani,28,Performer,"Commedia musicale, Commedia musicale","Rome, Italy",41.9027835,12.4963655
1158p,Mario Pistoni,9,Performer,"Balletto, Canzone italiana, Musica euro-colta, Musica popolare, Jazz","Rome, Italy",41.9027835,12.4963655
1161p,Mario Rossi,3,Performer,Musica euro-colta,"Rome, Italy",41.9027835,12.4963655
1168p,Marisa Del Frate,20,Performer,"Canzone italiana, Commedia musicale, Musica popolare, Commedia musicale","Rome, Italy",41.9027835,12.4963655
1170p,Marisa Merlini,13,Performer,Commedia musicale,"Rome, Italy",41.9027835,12.4963655
1182p,Massimo Bogianckino,1,Performer,Musica euro-colta,"Rome, Italy",41.9027835,12.4963655
1184p,Massimo Coen,1,Performer,Musica euro-colta,"Rome, Italy",41.9027835,12.4963655
1254p,Nelly Fioramonti,1,Performer,Canzone italiana,"Rome, Italy",41.9027835,12.4963655
1273p,Nicoletta Panni,1,Performer,Musica euro-colta,"Rome, Italy",41.9027835,12.4963655
1282p,Nino Bonavolontà,1,Performer,Musica euro-colta,"Rome, Italy",41.9027835,12.4963655
1387p,Orio Buccellato,1,Performer,Musica euro-colta,"Rome, Italy",41.9027835,12.4963655
1421p,Paolo Panelli,71,Performer,Commedia musicale,"Rome, Italy",41.9027835,12.4963655
1481p,Pietro Scarpini,4,Performer,Musica euro-colta,"Rome, Italy",41.9027835,12.4963655
1482p,Pietro Spada,4,Performer,Musica euro-colta,"Rome, Italy",41.9027835,12.4963655
1501p,Quartetto Cetra,71,Performer,"Canzone italiana, Commedia musicale, Commedia musicale, Rock and Roll","Rome, Italy",41.9027835,12.4963655
1557p,Raimondo Vianello,169,Performer,"Commedia musicale, Commedia musicale","Rome, Italy",41.9027835,12.4963655
1575p,Renato De Carmine,1,Performer,Musica di scena,"Rome, Italy",41.9027835,12.4963655
1603p,Riccardo Rauchi,11,Performer,"Canzone italiana, Canzone internazionale, Jazz, Rock and Roll","Rome, Italy",41.9027835,12.4963655
1639p,Rodolfo Caporali,1,Performer,Musica euro-colta,"Rome, Italy",41.9027835,12.4963655
1645p,Roman New Orleans Jazz Band,1,Performer,Jazz,"Rome, Italy",41.9027835,12.4963655
1653p,Rosemarie De Rive,1,Performer,Musica euro-colta,"Rome, Italy",41.9027835,12.4963655
1705p,Sergio Cafaro,3,Performer,Musica euro-colta,"Rome, Italy",41.9027835,12.4963655
1785p,Tonini Nava,7,Performer,Commedia musicale,"Rome, Italy",41.9027835,12.4963655
1846p,Vittorio Gui,6,Performer,Musica euro-colta,"Rome, Italy",41.9027835,12.4963655
1940p,Walter Venditti,2,Performer,"Balletto, Musica euro-colta","Rome, Italy",41.9027835,12.4963655
1862p,Wanda Osiris,86,Performer,"Commedia musicale, Commedia musicale","Rome, Italy",41.9027835,12.4963655
1513p,Quartetto di Roma,1,Performer,Musica euro-colta,"Rome, Italy",41.9027835,12.4963655
1716p,Sergiu Celibidache,33,Performer,Musica euro-colta,"Roman, Romania",46.9333781,26.9265451
1605p,Ricet Barrier,6,Performer,"Canzone francese, Musica euro-colta, Jazz","Romilly-sur-Seine, Francia",48.517732,3.726275
1094p,Mafalda Micheluzzi,2,Performer,Opera,"Rorai Grande, Pordenone",45.961031,12.6414289
1004p,Lee Barbieri Gato,1,Performer,Jazz,"Rosario, Santa Fe Province, Argentina",-32.9587022,-60.6930416
1349p,Orchestra filarmonica di Rotterdam,1,Performer,Musica euro-colta,"Rotterdam, Paesi Bassi",51.9244201,4.4777326
469p,Elly Amling,1,Performer,Musica euro-colta,"Rotterdam, Paesi Bassi",51.9244201,4.4777326
1577p,Renato Fait,2,Performer,Musica euro-colta,"Rovereto, Italy",45.89096,11.0401399
182p,Bianca Maria Furgeri,1,Performer,"Musica euro-colta, Opera","Rovigo, Italy",45.0698118,11.7902158
1196p,Maxim Scapiro,1,Performer,Musica euro-colta,Russia,61.52401,105.318756
129p,Antonio Machin,2,Performer,Commedia musicale,"Sagua la Grande, Cuba",22.8037709,-80.0702555
896p,Jacques Hess,2,Performer,Jazz,"Saigon, Vietnam",10.8230989,106.6296638
329p,Coleman Hawkins,2,Performer,Jazz,"Saint Joseph, Missouri, United States",39.7674578,-94.846681
445p,Efrem Kurtz,2,Performer,Musica euro-colta,"Saint Petersburg, Russia",59.9310584,30.3609096
1378p,Orchestra sinfonica di Leningrado,2,Performer,"Musica euro-colta, Musica colta conteporanea","Saint Petersburg, Russia",59.9310584,30.3609096
1132p,Marie Claire Alain,1,Performer,Musica euro-colta,"Saint-Germain-en-Laye, Francia",48.898908,2.093761
1150p,Mario Di Gilio,44,Performer,"Balletto, Canzone italiana, Canzone internazionale, Canzone napoletana, Commedia musicale","Salerno, Italy",40.6824408,14.7680961
835p,Herbert von Karajan,12,Performer,"Musica euro-colta, Opera","Salisburgo, Austria",47.80949,13.05501
769p,Giuseppe De Donà,2,Performer,Musica euro-colta,"Sambughé, Italy",45.5944723,12.2176353
368p,Cristina Krooskos,1,Performer,Opera,"San Diego, California, United States",32.715738,-117.1610838
1913p,Anna Maccianti,2,Performer,Opera,"San Domenico, Fiesole",43.8011772,11.2856455
386p,Dennis Burk,2,Performer,Opera,"San Francisco, California, Stati Uniti",37.7749295,-122.4194155
1825p,Vera Franceschi,1,Performer,Musica euro-colta,"San Francisco, California, Stati Uniti",37.7749295,-122.4194155
704p,Gianni Cazzola,1,Performer,Jazz,"San Giovanni in Persiceto, Italy",44.6405433,11.1893053
657p,Gastone Parigi,3,Performer,"Canzone italiana, Canzone internazionale","San Giovanni Valdarno, Italy",43.5724868,11.5230045
1485p,Pina Cei,14,Performer,Musica di scena,"San Juan, Porto Rico",18.4655394,-66.1057355
1309p,Oralia Dominguez,1,Performer,Musica euro-colta,"San Luis Potosí, Mexico",22.1564699,-100.9855409
589p,Franco Caracciolo,3,Performer,Musica euro-colta,"San Martino in Pensilis, Italy",41.870085,15.0109437
037p,Aladar Janes,5,Performer,Musica euro-colta,"San Michele all'Adige, Italy",46.1878653,11.1330423
533p,Eugenio Mravinskij,2,Performer,Musica euro-colta,"San Pietroburgo, Russia",59.9310584,30.3609096
1276p,Nikita Magaloff,11,Performer,Musica euro-colta,"San Pietroburgo, Russia",59.9310584,30.3609096
258p,Carlo Felice Cillario,17,Performer,"Balletto, Musica euro-colta, Musica popolare, Opera","San Rafael, Argentina",-34.6128922,-68.3390622
1483p,Pilar Lopez,6,Performer,"Balletto, Musica popolare","San Sebastián, Spagna",43.318334,-1.9812313
1264p,Nicanor Zabaleta,1,Performer,Musica euro-colta,"San Sebastián, Spagna",43.318334,-1.9812313
377p,Dario Fo,176,Performer,Musica di scena,"Sangiano, Italy",45.8773993,8.6297777
932p,Joerge Demus,3,Performer,Musica euro-colta,"Sankt Pölten, Austria",48.20353,15.63817
255p,Carlo Dapporto,156,Performer,"Commedia musicale, Commedia musicale","Sanremo, Italy",43.8159671,7.7760567
1280p,Nilla Pizzi,10,Performer,"Canzone italiana, Jazz, Rock and Roll","Sant'Agata bolognese, Italy",44.6721968,11.1183147
543p,Fausto Rinaldi,1,Performer,"Canzone italiana, Canzone internazionale","Santagata Feltria, Italy",43.8410432,12.1861447
1419p,Paolo Carlini,13,Performer,Commedia musicale,"Santarcangelo di Romagna, Italy",44.0633602,12.4523883
1903p,Alvaro Vicencio,1,Performer,Jazz,"Santiago, Chile",-33.4488897,-70.6692655
1918p,Antonio De Vico,1,Performer,Commedia musicale,"Santiago, Chile",-33.4488897,-70.6692655
753p,Giovanni Gibin,2,Performer,Musica euro-colta,"São Paulo, Brazil",-23.5557714,-46.6395571
1399p,Oskar Danon,2,Performer,Musica euro-colta,"Sarajevo, Bosnia-Erzegovina",43.8562586,18.4130763
1687p,Sandor Konya,8,Performer,Opera,"Sarkad, Ungheria",46.7374245,21.3810771
1385p,Orianna Santunioni,2,Performer,Opera,"Sassuolo, Italy",44.54433,10.7847741
1569p,Renata Scotto,26,Performer,"Musica euro-colta, Opera","Savona, Italy",44.2975603,8.4645
292p,Charles Mackerras,1,Performer,Musica euro-colta,"Schenectady, New York, United States",42.8142432,-73.9395687
837p,Hermann Michael,2,Performer,Musica euro-colta,"Schwäbisch Gmünd, Germania",48.7994019,9.8045704
1584p,Renato Sellani,6,Performer,Jazz,"Senigallia, Italy",43.7197926,13.2152224
410p,don Giuseppe Biella,57,Performer,"Musica euro-colta, Musica di scena","Seregno, Italy",45.6504567,9.2051608
1831p,Virgilio Carbonari,18,Performer,Opera,"Seriate, Italy",45.685418,9.7217012
1784p,Tonina Torrielli,20,Performer,"Canzone italiana, Musica popolare, Rock and Roll","Serravalle Scrivia, Italy",44.7232084,8.8574005
1673p,Ruggero Maghini,3,Performer,Musica euro-colta,"Sesto Calende, Italy",45.7307015,8.6365972
209p,Bruno Bartoletti,15,Performer,"Musica euro-colta, Opera","Sesto Fiorentino, Italy",43.8374367,11.2183781
1388p,Ornella Puliti Santoliquido,2,Performer,Musica euro-colta,"Sesto Fiorentino, Italy",43.8374367,11.2183781
595p,Franco Fantini,1,Performer,Musica euro-colta,"Sesto San Giovanni, Italy",45.5328245,9.2256875
400p,Hiroshi Kajiwara,1,Performer,Musica euro-colta,"Shangai, China",31.230416,121.473701
1960p,Willie Ruff,1,Performer,Jazz,"Sheffield, Alabama",34.7650887,-87.6986407
1872p,Willie Ruff,4,Performer,Jazz,"Sheffield, Alabama, United States",34.7650887,-87.6986407
1641p,Rohan De Saram,1,Performer,Musica euro-colta,"Sheffield, United Kingdom",53.381129,-1.470085
1890p,Zoe Collins,2,Performer,Jazz,"Sheffield, United Kingdom",53.381129,-1.470085
231p,Buddy Tate,2,Performer,Jazz,"Sherman, Texas, United States",33.6356618,-96.6088805
1821p,Van Cliburn,2,Performer,Musica euro-colta,"Shreveport, Louisiana, Stati Uniti",32.5251516,-93.7501789
369p,Dalida,4,Performer,"Canzone italiana, Jazz, Commedia musicale","Shubra, Cairo, Egypt",30.085551,31.2453488
119p,Antonietta Cassisa,1,Performer,Musica euro-colta,"Sicily, Italy",37.5999938,14.0153557
1009p,Leonardo Monreale,5,Performer,Opera,"Sicily, Italy",37.5999938,14.0153557
526p,Ettore Bastianini,80,Performer,Opera,"Siena, Italy",43.318809,11.3307574
1502p,Quartetto Chigiano,1,Performer,Musica euro-colta,"Siena, Italy",43.318809,11.3307574
1545p,Quintetto Chigiano,1,Performer,Musica euro-colta,"Siena, Italy",43.318809,11.3307574
1598p,Riccardo Billi,102,Performer,"Commedia musicale, Commedia musicale","Siena, Italy",43.318809,11.3307574
998p,Laura Londi,2,Performer,Musica euro-colta,"Signa, Italy",43.7919095,11.1051259
1231p,Mirto Picchi,2,Performer,Musica euro-colta,"Signa, Italy",43.7919095,11.1051259
1030p,Lino Puglisi,3,Performer,Opera,"Siracusa, Italy",37.0754739,15.2865861
116p,Anton Dolin,5,Performer,"Balletto, Musica euro-colta","Slinfold, West Sussex, England",51.070901,-0.404297
1406p,Ottetto sloveno,2,Performer,Musica popolare,Slovenia,46.151241,14.995463
902p,Jan Johansson,1,Performer,Jazz,"Söderhamn, Svezia",61.3055762,17.0628102
064p,Alexis Welssenberg,2,Performer,Musica euro-colta,"Sofia, Bulgaria",42.6977082,23.3218675
1352p,Orchestra giovanile di Sofia,1,Performer,Musica euro-colta,"Sofia, Bulgaria",42.6977082,23.3218675
1553p,Raffaele Ariè,1,Performer,Musica euro-colta,"Sofia, Bulgaria",42.6977082,23.3218675
1834p,Virginia Zeani,4,Performer,Opera,"Solovăstru, Romania",46.7743869,24.7703304
1587p,Rene Alix,2,Performer,Musica euro-colta,"Sotteville-lès-Rouen, France",49.4147405,1.0915405
935p,John Barbirolli,2,Performer,Musica euro-colta,"Southampton Row, Londra, Regno Unito",51.519616,-0.1218432
937p,John Gilpin,5,Performer,"Balletto, Musica euro-colta","Southsea, Portsmouth, Regno Unito",50.783565,-1.085559
430p,Earl Warren,2,Performer,Jazz,"Springfield, Ohio, United States",39.9242266,-83.8088171
1266p,Nicola Arigliano,4,Performer,"Canzone italiana, Jazz","Squinzano, Italy",40.4349907,18.0421742
1444p,Peter Maag,6,Performer,Musica euro-colta,"St. Gallen, Switzerland",47.4244818,9.3767173
961p,Josephine Baker,31,Performer,"Canzone italiana, Canzone internazionale, Balletto","St. Louis, Missouri, Stati Uniti",38.6270025,-90.1994042
1096p,Malcom Frager,1,Performer,Musica euro-colta,"St. Louis, Missouri, Stati Uniti",38.6270025,-90.1994042
1896p,Aldo Mancinelli,3,Performer,Musica euro-colta,"Steubenville, Ohio, United States",40.3697905,-80.6339638
958p,Joseph Eger,1,Performer,Musica euro-colta,"Stiria, Austria",47.3593442,14.4699827
1326p,Orchestra da camera di Stoccarda,1,Performer,Musica euro-colta,"Stuttgart, Germany",48.7758459,9.1829321
294p,Charlie Byrd,1,Performer,Jazz,"Suffolk, Virginia, United States",36.7282054,-76.5835621
124p,Antonio Boyer,5,Performer,Opera,"Sulmona, Italy",42.0481782,13.9289304
127p,Antonio Del Monaco,2,Performer,Opera,"Sulmona, Italy",42.0481782,13.9289304
370p,Dalton Baldwyn,1,Performer,Musica euro-colta,"Summit, New Jersey, United States",40.7146376,-74.3646122
875p,Ida Presti,1,Performer,Musica euro-colta,"Suresnes, Francia",48.869798,2.219033
1054p,Lovro von Matacic,11,Performer,Musica euro-colta,"Sussak, Croazia",45.323056,14.4688891
811p,Hans Kennel,1,Performer,Jazz,"Schwyz, Switzerland",47.0207138,8.6529884
